ISODateTimeUTC,Lat,Lon,SOG,COG,status,fixQ,nSat,HDOP,alt,id,validtime,batvolt,batperc,wifi_conn,wifi_signal_strength,acc_x,acc_y,acc_z,gyro_x,gyro_y,gyro_z,pitch,roll,mag_x,mag_y,mag_z,heading,w_speed,w_angle,w_speed_kts,true_wind_dir
2025-05-28T15:04:09.50Z,,,,,V,0,0,99.99,,boat1,1,4.12,98.1,0,,0.25,0.99,-0.16,-30.37,38.95,-5.5,73.31,-122.62,,,,,,,,
2025-05-28T15:04:09.60Z,,,,,V,0,0,99.99,,boat1,1,4.12,98.1,0,,0.09,0.93,-0.08,-4.32,17.11,-4.62,82.62,-131.63,,,,,,,,
2025-05-28T15:04:09.70Z,,,,,V,0,0,99.99,,boat1,1,4.12,98.1,0,,0.14,0.92,-0.03,12.85,26.51,-4.63,81.15,-102.09,,,,,,,,
2025-05-28T15:04:09.80Z,,,,,V,0,0,99.99,,boat1,1,4.12,98.1,0,,0.14,0.94,-0.05,12.94,35.08,-10.61,81.01,-109.65,,,,,,,,
2025-05-28T15:04:09.90Z,,,,,V,0,0,99.99,,boat1,1,4.12,98.1,0,,0.18,0.92,-0.02,11.55,32.47,-6.34,78.86,-96.34,,,,,,,,
2025-05-28T15:04:10.00Z,,,,,V,0,0,99.99,,boat1,1,4.12,98.1,0,,0.2,0.88,0.07,19.16,57.5,-2.35,76.46,-70.71,,,,,,,,
2025-05-28T15:04:10.10Z,,,,,V,0,0,99.99,,boat1,1,4.12,98.1,0,,0.35,1.05,0.25,10.76,34.23,-41.16,67.72,-54.46,,,,,,,,
2025-05-28T15:04:10.20Z,,,,,V,0,0,99.99,,boat1,1,4.12,98.1,0,,0.25,0.97,0.17,26.41,44.62,-55.99,72.69,-55.78,,,,,,,,
2025-05-28T15:04:10.30Z,,,,,V,0,0,99.99,,boat1,1,4.12,98.1,0,,0.08,0.85,0.2,35.03,40.15,-60.53,75.78,-21.8,,,,,,,,
2025-05-28T15:04:10.40Z,,,,,V,0,0,99.99,,boat1,1,4.12,98.1,0,,-0.12,0.92,0.39,-16.92,-28.24,-34.46,66.08,17.1,,,,,,,,
2025-05-28T15:04:10.50Z,,,,,V,0,0,99.99,,boat1,1,4.12,98.1,0,,-0.01,0.79,0.29,-30.16,-0.64,-16.09,69.83,1.97,,,,,,,,
2025-05-28T15:04:10.60Z,,,,,V,0,0,99.99,,boat1,1,4.12,98.1,0,,-0.09,0.91,0.35,-16.55,-65.66,-32.02,68.34,14.42,,,,,,,,
2025-05-28T15:04:10.70Z,,,,,V,0,0,99.99,,boat1,1,4.12,98.1,0,,-0.15,1.09,0.12,-7.84,-72.13,-9.75,80.01,51.34,,,,,,,,
2025-05-28T15:04:10.80Z,,,,,V,0,0,99.99,,boat1,1,4.12,98.1,0,,-0.34,1.21,0.01,-7.25,-123.72,-46.35,74.3,88.32,,,,,,,,
2025-05-28T15:04:10.90Z,,,,,V,0,0,99.99,,boat1,1,4.12,98.1,0,,-0.48,1.13,-0.06,-69.59,-50.19,-54.76,66.82,97.13,,,,,,,,
2025-05-28T15:04:11.00Z,,,,,V,0,0,99.99,,boat1,1,4.12,98.1,0,,-0.52,0.88,-0.15,-52.63,-8.67,-45.71,58.41,106.09,,,,,,,,
2025-05-28T15:04:11.10Z,,,,,V,0,0,99.99,,boat1,1,4.12,98.1,0,,-0.37,0.7,0.0,4.32,-10.66,-9.25,62.14,90.0,,,,,,,,
2025-05-28T15:04:11.20Z,,,,,V,0,0,99.99,,boat1,1,4.12,98.1,0,,-0.27,0.78,-0.19,12.82,5.0,11.21,67.06,125.13,,,,,,,,
2025-05-28T15:04:11.30Z,,,,,V,0,0,99.99,,boat1,1,4.12,98.1,0,,-0.45,0.94,-0.38,10.73,-26.64,34.68,57.93,130.18,,,,,,,,
2025-05-28T15:04:11.40Z,,,,,V,0,0,99.99,,boat1,1,4.12,98.1,0,,-0.38,1.14,-0.45,-10.46,-30.84,46.87,62.68,139.82,,,,,,,,
2025-05-28T15:04:11.50Z,,,,,V,0,0,99.99,,boat1,1,4.12,98.1,0,,-0.18,0.85,-0.38,9.84,-55.9,15.49,63.68,154.65,,,,,,,,
2025-05-28T15:04:11.60Z,,,,,V,0,0,99.99,,boat1,1,4.12,98.1,0,,-0.22,0.86,-0.39,3.67,-60.58,9.35,62.5,150.57,,,,,,,,
2025-05-28T15:04:11.70Z,,,,,V,0,0,99.99,,boat1,1,4.12,98.1,0,,-0.21,0.74,-0.57,-2.63,-67.35,15.09,50.62,159.78,,,,,,,,
2025-05-28T15:04:11.80Z,,,,,V,0,0,99.99,,boat1,1,4.12,98.1,0,,-0.24,0.77,-0.56,-1.17,-70.31,3.79,51.65,156.8,,,,,,,,
2025-05-28T15:04:11.90Z,,,,,V,0,0,99.99,,boat1,1,4.12,98.1,0,,-0.23,0.76,-0.6,1.69,-52.13,10.19,49.79,159.03,,,,,,,,
2025-05-28T15:04:12.00Z,,,,,V,0,0,99.99,,boat1,1,4.12,98.1,0,,-0.17,0.77,-0.62,21.41,-39.36,14.81,50.14,164.67,,,,,,,,
2025-05-28T15:04:12.10Z,,,,,V,0,0,99.99,,boat1,1,4.12,98.1,0,,-0.09,0.76,-0.79,32.62,43.07,25.99,43.71,173.5,,,,,,,,
2025-05-28T15:04:12.20Z,,,,,V,0,0,99.99,,boat1,1,4.12,98.1,0,,-0.06,0.67,-0.75,36.57,1.76,12.91,41.68,175.43,,,,,,,,
2025-05-28T15:04:12.30Z,,,,,V,0,0,99.99,,boat1,1,4.12,98.1,0,,-0.02,0.78,-0.82,29.94,-2.01,6.61,43.56,178.6,,,,,,,,
2025-05-28T15:04:12.40Z,,,,,V,0,0,99.99,,boat1,1,4.12,98.1,0,,0.0,0.75,-0.66,-11.04,5.47,-11.23,48.65,-180.0,,,,,,,,
2025-05-28T15:04:12.50Z,,,,,V,0,0,99.99,,boat1,1,4.12,98.1,0,,0.06,0.6,-0.66,-26.52,26.84,17.49,42.16,-174.81,,,,,,,,
2025-05-28T15:04:12.60Z,,,,,V,0,0,99.99,,boat1,1,4.12,98.1,0,,0.05,0.98,-0.75,2.8,7.8,20.14,52.51,-176.19,,,,,,,,
2025-05-28T15:04:12.70Z,,,,,V,0,0,99.99,,boat1,1,4.12,98.1,0,,-0.25,0.67,-0.62,5.21,45.13,-17.78,45.06,158.04,,,,,,,,
2025-05-28T15:04:12.80Z,,,,,V,0,0,99.99,,boat1,1,4.12,98.1,0,,-0.25,1.21,-0.79,-17.09,32.44,-62.77,55.6,162.44,,,,,,,,
2025-05-28T15:04:12.90Z,,,,,V,0,0,99.99,,boat1,1,4.12,98.1,0,,-0.13,1.55,-1.06,-36.57,60.89,-89.13,55.43,173.01,,,,,,,,
2025-05-28T15:04:13.00Z,,,,,V,0,0,99.99,,boat1,1,4.12,98.1,0,,-0.37,0.88,-0.52,-14.73,-20.41,-153.16,54.05,144.57,,,,,,,,
2025-05-28T15:04:13.10Z,,,,,V,0,0,99.99,,boat1,1,4.12,98.1,0,,-0.45,0.61,0.03,-23.63,46.12,-79.39,53.52,86.19,,,,,,,,
2025-05-28T15:04:13.20Z,,,,,V,0,0,99.99,,boat1,1,4.12,98.1,0,,-0.41,0.57,-0.08,4.87,58.4,-81.89,53.76,101.04,,,,,,,,
2025-05-28T15:04:13.30Z,,,,,V,0,0,99.99,,boat1,1,4.12,98.1,0,,-0.36,0.47,0.03,34.21,68.27,-56.78,52.45,85.24,,,,,,,,
2025-05-28T15:04:13.40Z,,,,,V,0,0,99.99,,boat1,1,4.12,98.1,0,,-0.4,0.3,0.07,19.47,101.15,21.13,36.46,80.07,,,,,,,,
2025-05-28T15:04:13.50Z,,,,,V,0,0,99.99,,boat1,1,4.12,98.1,0,,-0.34,0.43,0.05,23.52,92.72,26.6,51.37,81.63,,,,,,,,
2025-05-28T15:04:13.60Z,,,,,V,0,0,99.99,,boat1,1,4.12,98.1,0,,-0.5,0.34,0.56,46.18,94.07,57.32,24.37,41.76,,,,,,,,
2025-05-28T15:04:13.70Z,,,,,V,0,0,99.99,,boat1,1,4.12,98.1,0,,-0.51,1.04,0.07,114.06,-19.49,-2.19,63.67,82.18,,,,,,,,
2025-05-28T15:04:13.80Z,,,,,V,0,0,99.99,,boat1,1,4.12,98.1,0,,-0.52,1.25,-0.04,149.85,-49.72,-18.6,67.35,94.4,,,,,,,,
2025-05-28T15:04:13.90Z,,,,,V,0,0,99.99,,boat1,1,4.12,98.1,0,,-0.5,1.24,-0.53,173.56,4.66,-65.53,59.56,136.67,,,,,,,,
2025-05-28T15:04:14.00Z,,,,,V,0,0,99.99,,boat1,1,4.12,98.1,0,,-0.39,0.84,-0.69,149.62,36.95,-122.21,46.66,150.52,,,,,,,,
2025-05-28T15:04:14.20Z,,,,,V,0,0,99.99,,boat1,1,4.12,98.1,0,,-0.31,0.75,-0.76,37.53,-14.4,-30.95,42.42,157.81,,,,,,,,
2025-05-28T15:04:14.30Z,,,,,V,0,0,99.99,,boat1,1,4.12,98.1,0,,-0.34,0.59,-0.75,54.74,47.06,28.21,35.62,155.61,,,,,,,,
2025-05-28T15:04:14.40Z,,,,,V,0,0,99.99,,boat1,1,4.12,98.1,0,,0.06,0.81,-0.32,-19.3,-37.93,80.08,68.1,-169.38,,,,,,,,
2025-05-28T15:04:14.50Z,,,,,V,0,0,99.99,,boat1,1,4.12,98.1,0,,0.0,0.56,-0.86,-88.69,27.03,82.14,33.07,180.0,,,,,,,,
2025-05-28T15:04:14.60Z,,,,,V,0,0,99.99,,boat1,1,4.12,98.1,0,,-0.09,0.93,-0.92,-13.63,-13.03,-4.82,45.17,174.41,,,,,,,,
2025-05-28T15:04:14.70Z,,,,,V,0,0,99.99,,boat1,1,4.12,98.1,0,,-0.37,1.0,-0.4,-0.87,29.67,54.46,61.41,137.23,,,,,,,,
2025-05-28T15:04:14.80Z,,,,,V,0,0,99.99,,boat1,1,4.12,98.1,0,,0.43,1.5,-0.99,4.78,-47.15,28.86,54.26,-156.52,,,,,,,,
2025-05-28T15:04:14.90Z,,,,,V,0,0,99.99,,boat1,1,4.12,98.1,0,,0.16,0.95,-0.32,4.17,-45.12,1.17,69.36,-153.43,,,,,,,,
2025-05-28T15:04:15.00Z,,,,,V,0,0,99.99,,boat1,1,4.12,98.1,0,,-0.29,0.86,-0.1,-46.77,28.15,-60.11,70.37,109.03,,,,,,,,
2025-05-28T15:04:15.10Z,,,,,V,0,0,99.99,,boat1,1,4.12,98.1,0,,-0.46,0.83,-0.58,37.55,-42.96,18.67,48.27,141.58,,,,,,,,
2025-05-28T15:04:15.20Z,,,,,V,0,0,99.99,,boat1,1,4.12,98.1,0,,-0.39,0.57,-0.67,94.13,-37.28,-11.43,36.33,149.8,,,,,,,,
2025-05-28T15:04:15.30Z,,,,,V,0,0,99.99,,boat1,1,4.12,98.1,0,,-0.21,0.72,-0.22,60.88,-16.78,-12.58,67.1,136.33,,,,,,,,
2025-05-28T15:04:15.40Z,,,,,V,0,0,99.99,,boat1,1,4.12,98.1,0,,0.0,0.96,-0.56,-14.48,72.39,6.96,59.74,180.0,,,,,,,,
2025-05-28T15:04:15.50Z,,,,,V,0,0,99.99,,boat1,1,4.12,98.1,0,,-0.1,1.17,-0.6,-43.73,40.57,17.09,62.53,170.54,,,,,,,,
2025-05-28T15:04:15.60Z,,,,,V,0,0,99.99,,boat1,1,4.12,98.1,0,,0.0,0.59,-0.53,-57.9,-77.13,78.63,48.07,180.0,,,,,,,,
2025-05-28T15:04:15.70Z,,,,,V,0,0,99.99,,boat1,1,4.12,98.1,0,,-0.28,0.94,-0.64,46.83,-29.07,7.83,53.38,156.37,,,,,,,,
2025-05-28T15:04:15.80Z,,,,,V,0,0,99.99,,boat1,1,4.12,98.1,0,,0.21,0.16,-0.4,36.49,25.69,-71.49,19.5,-152.3,,,,,,,,
2025-05-28T15:04:15.90Z,,,,,V,0,0,99.99,,boat1,1,4.12,98.1,0,,0.75,0.89,-0.16,-10.27,56.03,-123.75,49.25,-102.04,,,,,,,,
2025-05-28T15:04:16.00Z,,,,,V,0,0,99.99,,boat1,1,4.12,98.1,0,,-0.15,0.87,0.12,-94.31,132.44,-95.84,77.55,51.34,,,,,,,,
2025-05-28T15:04:16.10Z,,,,,V,0,0,99.99,,boat1,1,4.12,98.1,0,,-0.32,1.44,-0.19,-3.96,45.97,-31.03,75.51,120.7,,,,,,,,
2025-05-28T15:04:16.20Z,,,,,V,0,0,99.99,,boat1,1,4.12,98.1,0,,-0.28,1.58,-0.01,40.52,-10.78,86.86,79.94,92.05,,,,,,,,
2025-05-28T15:04:16.30Z,,,,,V,0,0,99.99,,boat1,1,4.12,98.1,0,,0.07,1.28,-0.02,1.14,48.32,84.36,86.74,-105.95,,,,,,,,
2025-05-28T15:04:16.40Z,,,,,V,0,0,99.99,,boat1,1,4.12,98.1,0,,-0.45,1.06,-0.41,4.13,-4.66,2.1,60.13,132.34,,,,,,,,
2025-05-28T15:04:16.50Z,,,,,V,0,0,99.99,,boat1,1,4.12,98.1,0,,-0.21,0.93,-0.07,-3.48,-11.01,-77.58,76.61,108.43,,,,,,,,
2025-05-28T15:04:16.60Z,,,,,V,0,0,99.99,,boat1,1,4.12,98.1,0,,-0.06,1.05,1.03,-15.29,76.33,25.84,45.5,3.33,,,,,,,,
2025-05-28T15:04:16.70Z,,,,,V,0,0,99.99,,boat1,1,4.12,98.1,0,,-0.15,1.04,-0.14,0.18,-8.48,-1.85,78.84,133.03,,,,,,,,
2025-05-28T15:04:16.80Z,,,,,V,0,0,99.99,,boat1,1,4.12,98.1,0,,-0.35,1.06,0.12,-2.09,41.93,-37.56,70.76,71.08,,,,,,,,
2025-05-28T15:04:16.90Z,,,,,V,0,0,99.99,,boat1,1,4.12,98.1,0,,-0.29,1.03,0.18,-1.24,-9.4,-2.0,71.67,58.17,,,,,,,,
2025-05-28T15:04:17.00Z,,,,,V,0,0,99.99,,boat1,1,4.12,98.1,0,,-0.11,0.23,0.05,6.66,40.02,3.12,62.28,65.56,,,,,,,,
2025-05-28T15:04:17.20Z,,,,,V,0,0,99.99,,boat1,1,4.12,98.1,0,,-0.2,0.89,0.01,7.04,16.97,-12.74,77.32,87.14,,,,,,,,
2025-05-28T15:04:17.30Z,,,,,V,0,0,99.99,,boat1,1,4.12,98.1,0,,-0.19,1.06,-0.14,2.66,-13.94,-10.89,77.45,126.38,,,,,,,,
2025-05-28T15:04:17.40Z,,,,,V,0,0,99.99,,boat1,1,4.12,98.1,0,,-0.26,1.05,-0.16,2.7,-3.83,-1.84,73.79,121.61,,,,,,,,
2025-05-28T15:04:17.50Z,,,,,V,0,0,99.99,,boat1,1,4.12,98.1,0,,-0.2,0.99,-0.21,-2.49,11.72,-11.65,73.67,136.4,,,,,,,,
2025-05-28T15:04:17.60Z,,,,,V,0,0,99.99,,boat1,1,4.12,98.1,0,,-0.25,0.97,-0.14,4.77,-19.81,0.03,73.54,119.25,,,,,,,,
2025-05-28T15:04:17.70Z,,,,,V,0,0,99.99,,boat1,1,4.12,98.1,0,,-0.2,0.78,-0.35,0.69,10.74,-9.09,62.67,150.26,,,,,,,,
2025-05-28T15:04:17.80Z,,,,,V,0,0,99.99,,boat1,1,4.12,98.1,0,,-0.25,0.77,-0.11,11.84,-23.75,-0.73,70.47,113.75,,,,,,,,
2025-05-28T15:04:17.90Z,,,,,V,0,0,99.99,,boat1,1,4.12,98.1,0,,-0.2,0.81,-0.02,2.93,-18.09,3.49,76.06,95.71,,,,,,,,
2025-05-28T15:04:18.00Z,,,,,V,0,0,99.99,,boat1,1,4.12,98.1,0,,-0.12,0.61,-0.37,-51.54,54.4,-7.06,57.48,162.03,,,,,,,,
2025-05-28T15:04:18.10Z,,,,,V,0,0,99.99,,boat1,1,4.12,98.1,0,,-0.48,1.1,0.12,-0.07,121.62,1.81,65.78,75.96,,,,,,,,
2025-05-28T15:04:18.20Z,,,,,V,0,0,99.99,,boat1,1,4.12,98.1,0,,-0.12,1.35,0.13,-32.43,25.41,5.66,82.53,42.71,,,,,,,,
2025-05-28T15:04:18.30Z,,,,,V,0,0,99.99,,boat1,1,4.12,98.1,0,,-0.62,0.68,-0.03,45.72,-23.69,8.37,47.61,92.77,,,,,,,,
2025-05-28T15:04:18.40Z,,,,,V,0,0,99.99,,boat1,1,4.12,98.1,0,,-0.37,1.12,-0.08,10.37,-0.49,-10.2,71.33,102.2,,,,,,,,
2025-05-28T15:04:18.50Z,,,,,V,0,0,99.99,,boat1,1,4.12,98.1,0,,-0.34,1.22,-0.16,-3.76,-7.88,10.57,72.88,115.2,,,,,,,,
2025-05-28T15:04:18.60Z,,,,,V,0,0,99.99,,boat1,1,4.12,98.1,0,,-0.27,0.91,0.14,-3.0,16.78,-24.42,71.52,62.59,,,,,,,,
2025-05-28T15:04:18.70Z,,,,,V,0,0,99.99,,boat1,1,4.12,98.1,0,,-0.27,0.91,-0.15,3.41,-1.83,-16.75,71.25,119.05,,,,,,,,
2025-05-28T15:04:18.80Z,,,,,V,0,0,99.99,,boat1,1,4.12,98.1,0,,-0.28,1.15,-0.09,0.85,-17.68,-4.38,75.65,107.82,,,,,,,,
2025-05-28T15:04:18.90Z,,,,,V,0,0,99.99,,boat1,1,4.12,98.1,0,,0.1,1.2,0.04,-13.1,-4.48,17.82,84.87,-68.2,,,,,,,,
2025-05-28T15:04:19.00Z,,,,,V,0,0,99.99,,boat1,1,4.12,98.1,0,,-0.08,0.45,0.13,-22.57,29.94,-32.75,71.26,31.61,,,,,,,,
2025-05-28T15:04:19.10Z,,,,,V,0,0,99.99,,boat1,1,4.12,98.1,0,,-0.43,1.79,-0.11,-18.57,-20.28,-13.7,76.07,104.35,,,,,,,,
2025-05-28T15:04:19.20Z,,,,,V,0,0,99.99,,boat1,1,4.12,98.1,0,,-0.16,0.9,-0.27,-10.75,-93.54,30.41,70.78,149.35,,,,,,,,
2025-05-28T15:04:19.30Z,,,,,V,0,0,99.99,,boat1,1,4.12,98.1,0,,-0.29,0.91,-0.08,-10.41,-2.03,-0.14,71.71,105.42,,,,,,,,
2025-05-28T15:04:19.40Z,,,,,V,0,0,99.99,,boat1,1,4.12,98.1,0,,-0.24,0.98,-0.17,-7.74,-16.51,3.12,73.29,125.31,,,,,,,,
2025-05-28T15:04:19.50Z,,,,,V,0,0,99.99,,boat1,1,4.12,98.1,0,,-0.21,0.96,-0.16,-2.92,-30.25,3.35,74.62,127.3,,,,,,,,
2025-05-28T15:04:19.60Z,,,,,V,0,0,99.99,,boat1,1,4.12,98.1,0,,-1.66,1.53,0.01,-1.17,5.5,3.18,42.67,89.65,,,,,,,,
2025-05-28T15:04:19.70Z,,,,,V,0,0,99.99,,boat1,1,4.12,98.1,0,,-0.16,0.78,-0.11,-4.83,-0.08,-3.96,76.02,124.51,,,,,,,,
2025-05-28T15:04:19.80Z,,,,,V,0,0,99.99,,boat1,1,4.12,98.1,0,,-0.19,0.93,-0.02,-5.42,-3.54,2.74,78.39,96.01,,,,,,,,
2025-05-28T15:04:19.90Z,,,,,V,0,0,99.99,,boat1,1,4.12,98.1,0,,-0.2,0.96,0.0,-6.24,12.41,3.88,78.23,90.0,,,,,,,,
2025-05-28T15:04:20.00Z,,,,,V,0,0,99.99,,boat1,1,4.12,98.1,0,,-0.16,0.96,-0.01,-6.96,3.51,3.33,80.52,93.58,,,,,,,,
2025-05-28T15:04:20.10Z,,,,,V,0,0,99.99,,boat1,1,4.12,98.1,0,,-0.21,1.05,0.05,-5.17,2.97,0.27,78.38,76.61,,,,,,,,
2025-05-28T15:04:20.20Z,,,,,V,0,0,99.99,,boat1,1,4.12,98.1,0,,-0.24,0.93,-0.01,-4.51,2.78,-0.62,75.52,92.39,,,,,,,,
2025-05-28T15:04:20.30Z,,,,,V,0,0,99.99,,boat1,1,4.12,98.1,0,,-0.24,1.01,0.05,-2.65,4.12,-3.7,76.36,78.23,,,,,,,,
2025-05-28T15:04:20.40Z,,,,,V,0,0,99.99,,boat1,1,4.12,98.1,0,,-0.27,1.03,0.02,2.61,4.42,-9.3,75.27,85.76,,,,,,,,
2025-05-28T15:04:20.50Z,,,,,V,0,0,99.99,,boat1,1,4.12,98.1,0,,-0.24,0.94,-0.04,-1.76,7.28,-9.96,75.49,99.46,,,,,,,,
2025-05-28T15:04:20.60Z,,,,,V,0,0,99.99,,boat1,1,4.12,98.1,0,,-0.24,1.06,-0.01,4.38,-2.62,-9.35,77.23,92.39,,,,,,,,
2025-05-28T15:04:20.70Z,,,,,V,0,0,99.99,,boat1,1,4.12,98.1,0,,-0.27,1.01,-0.02,2.47,-6.89,-7.91,74.99,94.24,,,,,,,,
2025-05-28T15:04:20.80Z,,,,,V,0,0,99.99,,boat1,1,4.12,98.1,0,,-0.28,0.98,0.02,-5.08,17.88,-4.62,74.02,85.91,,,,,,,,
2025-05-28T15:04:20.90Z,,,,,V,0,0,99.99,,boat1,1,4.12,98.1,0,,-0.24,0.68,-0.16,-8.24,40.88,-0.59,67.01,123.69,,,,,,,,
2025-05-28T15:04:21.00Z,,,,,V,0,0,99.99,,boat1,1,4.12,98.1,0,,-0.28,0.94,-0.02,1.48,-12.14,0.09,73.37,94.09,,,,,,,,
2025-05-28T15:04:21.10Z,,,,,V,0,0,99.99,,boat1,1,4.12,98.1,0,,-0.26,0.92,-0.08,5.99,-25.58,9.78,73.53,107.1,,,,,,,,
2025-05-28T15:04:21.30Z,,,,,V,0,0,99.99,,boat1,1,4.12,98.1,0,,-0.21,0.75,-0.01,-4.79,-0.06,11.66,74.34,92.73,,,,,,,,
2025-05-28T15:04:21.40Z,,,,,V,0,0,99.99,,boat1,1,4.12,98.1,0,,-0.21,0.8,-0.64,-0.5,176.74,0.05,49.9,161.83,,,,,,,,
2025-05-28T15:04:21.50Z,,,,,V,0,0,99.99,,boat1,1,4.12,98.1,0,,-0.13,1.03,0.25,-43.1,159.53,12.23,74.7,27.47,,,,,,,,
2025-05-28T15:04:21.60Z,,,,,V,0,0,99.99,,boat1,1,4.12,98.1,0,,-0.21,1.39,0.08,-9.51,44.32,7.72,80.82,69.15,,,,,,,,
2025-05-28T15:04:21.70Z,,,,,V,0,0,99.99,,boat1,1,4.12,98.1,0,,-0.18,0.94,0.16,-0.53,11.93,-1.9,75.63,48.37,,,,,,,,
2025-05-28T15:04:21.80Z,,,,,V,0,0,99.99,,boat1,1,4.12,98.1,0,,-0.13,0.82,0.01,-25.41,7.32,-35.4,80.97,85.6,,,,,,,,
2025-05-28T15:04:21.90Z,,,,,V,0,0,99.99,,boat1,1,4.12,98.1,0,,-0.22,1.11,0.06,10.9,23.81,-6.88,78.39,74.74,,,,,,,,
2025-05-28T15:04:22.00Z,,,,,V,0,0,99.99,,boat1,1,4.12,98.1,0,,-0.33,1.04,0.61,4.87,-28.56,-8.16,56.3,28.41,,,,,,,,
2025-05-28T15:04:22.10Z,,,,,V,0,0,99.99,,boat1,1,4.12,98.1,0,,-0.3,1.01,0.61,-5.15,1.97,-37.01,56.06,26.19,,,,,,,,
2025-05-28T15:04:22.20Z,,,,,V,0,0,99.99,,boat1,1,4.12,98.1,0,,-0.31,0.92,-0.05,5.46,-21.59,-16.6,71.15,99.16,,,,,,,,
2025-05-28T15:04:22.30Z,,,,,V,0,0,99.99,,boat1,1,4.12,98.1,0,,-0.33,1.03,0.23,11.96,-29.75,-14.2,68.67,55.12,,,,,,,,
2025-05-28T15:04:22.40Z,,,,,V,0,0,99.99,,boat1,1,4.12,98.1,0,,-0.22,0.6,-0.17,7.32,-19.42,-24.14,65.14,127.69,,,,,,,,
2025-05-28T15:04:22.50Z,,,,,V,0,0,99.99,,boat1,1,4.12,98.1,0,,-0.33,0.71,-0.12,11.33,-28.94,-8.69,63.68,109.98,,,,,,,,
2025-05-28T15:04:22.60Z,,,,,V,0,0,99.99,,boat1,1,4.12,98.1,0,,-0.29,1.17,-0.22,4.09,7.95,21.79,72.72,127.18,,,,,,,,
2025-05-28T15:04:22.70Z,,,,,V,0,0,99.99,,boat1,1,4.12,98.1,0,,-0.22,0.9,0.08,1.03,-4.58,10.97,75.42,70.02,,,,,,,,
2025-05-28T15:04:22.80Z,,,,,V,0,0,99.99,,boat1,1,4.12,98.1,0,,-0.24,0.84,-0.07,-8.02,9.52,19.48,73.43,106.26,,,,,,,,
2025-05-28T15:04:22.90Z,,,,,V,0,0,99.99,,boat1,1,4.12,98.1,0,,-0.27,0.92,0.02,-7.97,1.83,19.13,73.6,85.76,,,,,,,,
2025-05-28T15:04:23.00Z,,,,,V,0,0,99.99,,boat1,1,4.12,98.1,0,,-0.2,1.09,-0.09,-13.62,14.49,23.86,78.62,114.23,,,,,,,,
2025-05-28T15:04:23.10Z,,,,,V,0,0,99.99,,boat1,1,4.12,98.1,0,,-0.35,1.0,0.24,-16.41,15.97,17.15,67.0,55.56,,,,,,,,
2025-05-28T15:04:23.20Z,,,,,V,0,0,99.99,,boat1,1,4.12,98.1,0,,-0.27,1.02,0.08,-12.05,2.12,10.9,74.57,73.5,,,,,,,,
2025-05-28T15:04:23.30Z,,,,,V,0,0,99.99,,boat1,1,4.12,98.1,0,,-0.27,0.97,0.11,-7.88,2.67,1.12,73.27,67.83,,,,,,,,
2025-05-28T15:04:23.40Z,,,,,V,0,0,99.99,,boat1,1,4.12,98.1,0,,-0.24,1.13,0.01,0.67,27.15,2.79,78.0,87.61,,,,,,,,
2025-05-28T15:04:23.50Z,,,,,V,0,0,99.99,,boat1,1,4.12,98.1,0,,-0.27,1.02,0.05,-2.12,-16.95,-4.51,74.93,79.51,,,,,,,,
2025-05-28T15:04:23.60Z,,,,,V,0,0,99.99,,boat1,1,4.12,98.1,0,,-0.26,1.07,0.01,2.12,-5.21,-5.79,76.33,87.8,,,,,,,,
2025-05-28T15:04:23.70Z,,,,,V,0,0,99.99,,boat1,1,4.12,98.1,0,,-0.26,1.01,0.05,5.45,-2.65,-21.97,75.31,79.11,,,,,,,,
2025-05-28T15:04:23.80Z,,,,,V,0,0,99.99,,boat1,1,4.12,98.1,0,,-0.28,0.99,-0.06,7.5,-9.9,-15.75,73.87,102.09,,,,,,,,
2025-05-28T15:04:23.90Z,,,,,V,0,0,99.99,,boat1,1,4.12,98.1,0,,-0.25,0.84,-0.07,7.95,-5.84,-13.76,72.83,105.64,,,,,,,,
2025-05-28T15:04:24.00Z,,,,,V,0,0,99.99,,boat1,1,4.12,98.1,0,,-0.29,0.86,-0.04,7.67,-6.94,-11.62,71.2,97.85,,,,,,,,
2025-05-28T15:04:24.10Z,,,,,V,0,0,99.99,,boat1,1,4.12,98.1,0,,-0.19,0.88,-0.22,2.8,5.12,10.31,71.72,139.18,,,,,,,,
2025-05-28T15:04:24.20Z,,,,,V,0,0,99.99,,boat1,1,4.12,98.1,0,,-0.28,0.94,0.02,-2.67,-4.16,-7.57,73.37,85.91,,,,,,,,
2025-05-28T15:04:24.30Z,,,,,V,0,0,99.99,,boat1,1,4.12,98.1,0,,-0.3,1.03,0.08,-1.61,7.82,2.89,73.23,75.07,,,,,,,,
2025-05-28T15:04:24.40Z,,,,,V,0,0,99.99,,boat1,1,4.12,98.1,0,,-0.05,0.74,-0.22,-5.98,26.5,61.19,73.04,167.2,,,,,,,,
2025-05-28T15:04:24.50Z,,,,,V,0,0,99.99,,boat1,1,4.12,98.1,0,,-0.34,0.98,-0.05,-2.56,-7.64,3.49,70.68,98.37,,,,,,,,
2025-05-28T15:04:24.60Z,,,,,V,0,0,99.99,,boat1,1,4.12,98.1,0,,-0.28,1.01,0.0,-5.13,6.49,5.03,74.51,90.0,,,,,,,,
2025-05-28T15:04:24.70Z,,,,,V,0,0,99.99,,boat1,1,4.12,98.1,0,,-0.2,1.13,0.06,-0.74,-23.4,15.02,79.53,73.3,,,,,,,,
2025-05-28T15:04:24.80Z,,,,,V,0,0,99.99,,boat1,1,4.12,98.1,0,,-0.15,1.58,-0.19,-3.44,2.34,18.3,81.29,141.71,,,,,,,,
2025-05-28T15:04:24.90Z,,,,,V,0,0,99.99,,boat1,1,4.12,98.1,0,,-0.19,1.05,-0.08,3.98,-8.91,0.66,78.89,112.83,,,,,,,,
2025-05-28T15:04:25.00Z,,,,,V,0,0,99.99,,boat1,1,4.12,98.1,0,,-0.17,1.03,-0.04,4.09,-1.13,-2.44,80.38,103.24,,,,,,,,
2025-05-28T15:04:25.10Z,,,,,V,0,0,99.99,,boat1,1,4.12,98.1,0,,-0.17,0.98,-0.05,2.48,2.56,5.08,79.75,106.39,,,,,,,,
2025-05-28T15:04:25.20Z,,,,,V,0,0,99.99,,boat1,1,4.12,98.1,0,,-0.15,0.97,-0.04,1.59,3.25,3.79,80.91,104.93,,,,,,,,
2025-05-28T15:04:25.30Z,,,,,V,0,0,99.99,,boat1,1,4.12,98.1,0,,-0.05,1.02,-0.03,-1.86,1.95,1.48,86.73,120.96,,,,,,,,
2025-05-28T15:04:25.40Z,,,,,V,0,0,99.99,,boat1,1,4.12,98.1,0,,-0.05,1.01,-0.07,-0.55,10.25,-2.47,85.13,144.46,,,,,,,,
2025-05-28T15:04:25.50Z,,,,,V,0,0,99.99,,boat1,1,4.12,98.1,0,,-0.17,1.05,-0.01,-5.9,-2.67,-4.6,80.79,93.37,,,,,,,,
2025-05-28T15:04:25.60Z,,,,,V,0,0,99.99,,boat1,1,4.12,98.1,0,,-0.14,0.96,-0.01,-2.63,-9.87,-8.71,81.68,94.09,,,,,,,,
2025-05-28T15:04:25.70Z,,,,,V,0,0,99.99,,boat1,1,4.12,98.1,0,,-0.21,0.98,0.01,-3.67,-9.58,-7.74,77.89,87.27,,,,,,,,
2025-05-28T15:04:25.80Z,,,,,V,0,0,99.99,,boat1,1,4.12,98.1,0,,-0.16,0.98,-0.19,-6.77,-2.36,-4.44,75.78,139.9,,,,,,,,
2025-05-28T15:04:25.90Z,,,,,V,0,0,99.99,,boat1,1,4.12,98.1,0,,-0.24,1.03,0.13,6.7,56.32,-3.73,75.16,61.56,,,,,,,,
2025-05-28T15:04:26.00Z,,,,,V,0,0,99.99,,boat1,1,4.12,98.1,0,,-0.3,0.8,-0.07,4.43,8.33,5.06,68.94,103.13,,,,,,,,
2025-05-28T15:04:26.10Z,,,,,V,0,0,99.99,,boat1,1,4.12,98.1,0,,-0.19,1.02,-0.03,-7.91,-27.78,-5.86,79.32,98.97,,,,,,,,
2025-05-28T15:04:26.20Z,,,,,V,0,0,99.99,,boat1,1,4.12,98.1,0,,-0.22,0.99,-0.09,2.66,-25.04,-4.39,76.5,112.25,,,,,,,,
2025-05-28T15:04:26.30Z,,,,,V,0,0,99.99,,boat1,1,4.12,98.1,0,,-0.14,1.17,-0.23,-5.04,31.19,-6.52,77.04,148.67,,,,,,,,
2025-05-28T15:04:26.40Z,,,,,V,0,0,99.99,,boat1,1,4.12,98.1,0,,-0.14,0.98,-0.03,-5.38,-15.95,2.76,81.69,102.09,,,,,,,,
2025-05-28T15:04:26.50Z,,,,,V,0,0,99.99,,boat1,1,4.12,98.1,0,,-0.21,0.98,-0.02,-4.75,8.24,2.67,77.85,95.44,,,,,,,,
2025-05-28T15:04:26.60Z,,,,,V,0,0,99.99,,boat1,1,4.12,98.1,0,,-0.18,1.01,-0.02,-4.23,2.62,2.61,79.83,96.34,,,,,,,,
2025-05-28T15:04:26.70Z,,,,,V,0,0,99.99,,boat1,1,4.12,98.1,0,,-0.15,1.08,0.01,-5.61,0.42,1.91,82.08,86.19,,,,,,,,
2025-05-28T15:04:26.80Z,,,,,V,0,0,99.99,,boat1,1,4.12,98.1,0,,-0.2,1.04,0.03,-3.75,6.03,1.22,79.0,81.47,,,,,,,,
2025-05-28T15:04:26.90Z,,,,,V,0,0,99.99,,boat1,1,4.12,98.1,0,,-0.18,1.0,-0.02,-4.4,3.24,-1.52,79.73,96.34,,,,,,,,
2025-05-28T15:04:27.00Z,,,,,V,0,0,99.99,,boat1,1,4.12,98.1,0,,-0.2,0.99,-0.05,-2.06,3.3,-1.16,78.24,104.04,,,,,,,,
2025-05-28T15:04:27.20Z,,,,,V,0,0,99.99,,boat1,1,4.12,98.1,0,,-0.17,0.97,-0.01,-1.14,-2.84,-3.18,80.04,93.37,,,,,,,,
2025-05-28T15:04:27.30Z,,,,,V,0,0,99.99,,boat1,1,4.12,98.1,0,,-0.22,0.97,-0.04,2.09,-4.57,-1.17,77.02,100.3,,,,,,,,
2025-05-28T15:04:27.40Z,,,,,V,0,0,99.99,,boat1,1,4.12,98.1,0,,-0.14,0.95,-0.03,1.14,-1.3,-0.69,81.43,102.09,,,,,,,,
2025-05-28T15:04:27.50Z,,,,,V,0,0,99.99,,boat1,1,4.12,98.1,0,,-0.14,0.97,-0.01,-1.43,-3.46,-0.78,81.77,94.09,,,,,,,,
2025-05-28T15:04:27.60Z,,,,,V,0,0,99.99,,boat1,1,4.12,98.1,0,,-0.18,0.96,-0.04,-2.57,0.23,-0.68,79.13,102.53,,,,,,,,
2025-05-28T15:04:27.70Z,,,,,V,0,0,99.99,,boat1,1,4.12,98.1,0,,-0.18,0.98,-0.02,-3.07,1.21,-0.33,79.53,96.34,,,,,,,,
2025-05-28T15:04:27.80Z,,,,,V,0,0,99.99,,boat1,1,4.12,98.1,0,,-0.15,0.96,-0.06,-3.0,5.17,0.83,80.45,111.8,,,,,,,,
2025-05-28T15:04:27.90Z,,,,,V,0,0,99.99,,boat1,1,4.12,98.1,0,,-0.18,1.01,-0.02,-2.9,0.32,1.3,79.83,96.34,,,,,,,,
2025-05-28T15:04:28.00Z,,,,,V,0,0,99.99,,boat1,1,4.12,98.1,0,,-0.23,1.02,0.0,-2.84,8.12,2.72,77.29,90.0,,,,,,,,
2025-05-28T15:04:28.10Z,,,,,V,0,0,99.99,,boat1,1,4.12,98.1,0,,-0.15,1.04,-0.03,-3.73,8.34,1.65,81.63,101.31,,,,,,,,
2025-05-28T15:04:28.20Z,,,,,V,0,0,99.99,,boat1,1,4.12,98.1,0,,-0.19,1.02,-0.03,-3.67,7.84,2.27,79.32,98.97,,,,,,,,
2025-05-28T15:04:28.30Z,,,,,V,0,0,99.99,,boat1,1,4.12,98.1,0,,-0.21,1.04,0.0,-2.19,2.2,0.17,78.58,90.0,,,,,,,,
2025-05-28T15:04:28.40Z,,,,,V,0,0,99.99,,boat1,1,4.12,98.1,0,,-0.15,1.03,-0.01,-1.11,0.45,-0.25,81.7,93.81,,,,,,,,
2025-05-28T15:04:28.50Z,,,,,V,0,0,99.99,,boat1,1,4.12,98.1,0,,-0.2,1.04,0.01,-0.82,7.02,-0.93,79.1,87.14,,,,,,,,
2025-05-28T15:04:28.60Z,,,,,V,0,0,99.99,,boat1,1,4.12,98.1,0,,-0.16,1.02,0.01,0.97,4.42,-1.51,81.07,86.42,,,,,,,,
2025-05-28T15:04:28.70Z,,,,,V,0,0,99.99,,boat1,1,4.12,98.1,0,,-0.15,0.98,-0.02,1.08,-1.5,-2.23,81.22,97.59,,,,,,,,
2025-05-28T15:04:28.80Z,,,,,V,0,0,99.99,,boat1,1,4.12,98.1,0,,-0.15,0.97,-0.01,-0.48,-21.45,-4.02,81.19,93.81,,,,,,,,
2025-05-28T15:04:28.90Z,,,,,V,0,0,99.99,,boat1,1,4.12,98.1,0,,-0.2,0.95,-0.01,-0.91,-2.87,-4.18,78.1,92.86,,,,,,,,
2025-05-28T15:04:29.00Z,,,,,V,0,0,99.99,,boat1,1,4.12,98.1,0,,-0.18,0.92,0.0,2.18,-4.64,-3.46,78.93,90.0,,,,,,,,
2025-05-28T15:04:29.10Z,,,,,V,0,0,99.99,,boat1,1,4.12,98.1,0,,-0.15,0.96,-0.04,-2.74,-12.02,-5.15,80.81,104.93,,,,,,,,
2025-05-28T15:04:29.20Z,,,,,V,0,0,99.99,,boat1,1,4.12,98.1,0,,-0.17,0.96,-0.07,-1.92,0.46,-2.98,79.16,112.38,,,,,,,,
2025-05-28T15:04:29.30Z,,,,,V,0,0,99.99,,boat1,1,4.12,98.1,0,,-0.17,1.0,-0.02,2.97,22.09,-1.68,80.29,96.71,,,,,,,,
2025-05-28T15:04:29.40Z,,,,,V,0,0,99.99,,boat1,1,4.12,98.1,0,,-0.18,0.98,-0.01,0.88,-0.94,-2.24,79.58,93.18,,,,,,,,
2025-05-28T15:04:29.50Z,,,,,V,0,0,99.99,,boat1,1,4.12,98.1,0,,-0.21,0.95,-0.06,-3.52,0.12,-2.63,77.05,105.95,,,,,,,,
2025-05-28T15:04:29.60Z,,,,,V,0,0,99.99,,boat1,1,4.12,98.1,0,,-0.25,1.03,0.01,-2.46,2.87,2.77,76.35,87.71,,,,,,,,
2025-05-28T15:04:29.70Z,,,,,V,0,0,99.99,,boat1,1,4.12,98.1,0,,-0.17,1.07,0.0,-5.2,9.33,3.49,80.97,90.0,,,,,,,,
2025-05-28T15:04:29.80Z,,,,,V,0,0,99.99,,boat1,1,4.12,98.1,0,,-0.2,1.0,-0.03,-5.3,8.91,4.09,78.57,98.53,,,,,,,,
2025-05-28T15:04:29.90Z,,,,,V,0,0,99.99,,boat1,1,4.12,98.1,0,,-0.2,0.99,-0.03,-4.65,1.85,5.74,78.45,98.53,,,,,,,,
2025-05-28T15:04:30.00Z,,,,,V,0,0,99.99,,boat1,1,4.12,98.1,0,,-0.18,1.01,-0.04,-6.63,-2.37,3.88,79.65,102.53,,,,,,,,
2025-05-28T15:04:30.10Z,,,,,V,0,0,99.99,,boat1,1,4.12,98.1,0,,-0.26,1.0,0.01,-4.76,-0.84,2.82,75.42,87.8,,,,,,,,
2025-05-28T15:04:30.20Z,,,,,V,0,0,99.99,,boat1,1,4.12,98.1,0,,-0.23,1.02,0.04,-1.17,6.13,1.9,77.11,80.13,,,,,,,,
2025-05-28T15:04:30.30Z,,,,,V,0,0,99.99,,boat1,1,4.12,98.1,0,,-0.23,1.03,0.04,-0.96,-3.71,1.33,77.23,80.13,,,,,,,,
2025-05-28T15:04:30.40Z,,,,,V,0,0,99.99,,boat1,1,4.12,98.1,0,,-0.2,1.01,0.01,1.58,3.61,-1.89,78.79,87.14,,,,,,,,
2025-05-28T15:04:30.50Z,,,,,V,0,0,99.99,,boat1,1,4.12,98.1,0,,-0.19,1.02,-0.07,3.17,-5.1,-2.86,78.77,110.22,,,,,,,,
2025-05-28T15:04:30.60Z,,,,,V,0,0,99.99,,boat1,1,4.13,98.1,0,,-0.14,0.97,-0.06,3.96,-8.71,-5.25,81.08,113.2,,,,,,,,
2025-05-28T15:04:30.70Z,,,,,V,0,0,99.99,,boat1,1,4.13,98.1,0,,-0.19,0.95,0.02,4.95,-7.77,-3.63,78.63,83.99,,,,,,,,
2025-05-28T15:04:30.80Z,,,,,V,0,0,99.99,,boat1,1,4.13,98.1,0,,-0.16,0.93,0.01,4.72,-5.36,-3.92,80.22,86.42,,,,,,,,
2025-05-28T15:04:31.00Z,,,,,V,0,0,99.99,,boat1,1,4.13,98.1,0,,-0.18,0.9,-0.06,-3.8,6.1,0.89,78.1,108.43,,,,,,,,
2025-05-28T15:04:31.10Z,,,,,V,0,0,99.99,,boat1,1,4.13,98.1,0,,-0.15,0.95,-0.02,-3.92,9.5,1.93,80.95,97.59,,,,,,,,
2025-05-28T15:04:31.20Z,,,,,V,0,0,99.99,,boat1,1,4.13,98.1,0,,-0.18,0.94,-0.05,-6.96,12.12,4.29,78.76,105.52,,,,,,,,
2025-05-28T15:04:31.30Z,,,,,V,0,0,99.99,,boat1,1,4.13,98.1,0,,-0.27,1.05,-0.04,-5.95,11.67,4.15,75.43,98.43,,,,,,,,
2025-05-28T15:04:31.40Z,,,,,V,0,0,99.99,,boat1,1,4.13,98.1,0,,-0.23,1.1,0.01,-3.48,15.14,4.94,78.18,87.51,,,,,,,,
2025-05-28T15:04:31.50Z,,,,,V,0,0,99.99,,boat1,1,4.13,98.1,0,,-0.17,1.03,0.04,-0.59,-4.65,3.46,80.38,76.76,,,,,,,,
2025-05-28T15:04:31.60Z,,,,,V,0,0,99.99,,boat1,1,4.13,98.1,0,,-0.17,1.08,-0.01,1.59,5.36,1.88,81.04,93.37,,,,,,,,
2025-05-28T15:04:31.70Z,,,,,V,0,0,99.99,,boat1,1,4.13,98.1,0,,-0.14,1.07,-0.01,3.19,1.72,-0.53,82.53,94.09,,,,,,,,
2025-05-28T15:04:31.80Z,,,,,V,0,0,99.99,,boat1,1,4.13,98.1,0,,-0.2,1.03,-0.02,0.78,-1.98,-3.44,78.96,95.71,,,,,,,,
2025-05-28T15:04:31.90Z,,,,,V,0,0,99.99,,boat1,1,4.13,98.1,0,,-0.16,1.04,0.08,3.07,-3.76,-4.93,80.24,63.43,,,,,,,,
2025-05-28T15:04:32.00Z,,,,,V,0,0,99.99,,boat1,1,4.13,98.1,0,,-0.16,1.01,0.02,2.74,-7.09,-6.57,80.93,82.87,,,,,,,,
2025-05-28T15:04:32.10Z,,,,,V,0,0,99.99,,boat1,1,4.13,98.1,0,,-0.18,0.93,-0.02,2.97,-2.62,-5.91,78.98,96.34,,,,,,,,
2025-05-28T15:04:32.20Z,,,,,V,0,0,99.99,,boat1,1,4.13,98.1,0,,-0.32,0.93,0.11,1.31,-6.05,-5.13,70.01,71.03,,,,,,,,
2025-05-28T15:04:32.30Z,,,,,V,0,0,99.99,,boat1,1,4.13,98.1,0,,-0.28,0.89,-0.04,7.37,-2.52,-0.91,72.37,98.13,,,,,,,,
2025-05-28T15:04:32.40Z,,,,,V,0,0,99.99,,boat1,1,4.13,98.1,0,,-0.15,0.87,-0.08,3.75,-1.06,-6.46,78.94,118.07,,,,,,,,
2025-05-28T15:04:32.50Z,,,,,V,0,0,99.99,,boat1,1,4.13,98.1,0,,-0.3,1.0,0.01,5.5,2.36,0.42,73.29,88.09,,,,,,,,
2025-05-28T15:04:32.60Z,,,,,V,0,0,99.99,,boat1,1,4.13,98.1,0,,-0.35,1.02,-0.02,3.83,-0.01,4.41,71.03,93.27,,,,,,,,
2025-05-28T15:04:32.70Z,,,,,V,0,0,99.99,,boat1,1,4.13,98.1,0,,-0.2,1.0,0.05,13.6,3.88,5.44,78.35,75.96,,,,,,,,
2025-05-28T15:04:32.80Z,,,,,V,0,0,99.99,,boat1,1,4.13,98.1,0,,-0.18,1.12,0.01,10.74,5.08,6.16,80.86,86.82,,,,,,,,
2025-05-28T15:04:32.90Z,,,,,V,0,0,99.99,,boat1,1,4.13,98.1,0,,-0.09,1.07,0.03,10.79,2.02,10.09,84.93,71.57,,,,,,,,
2025-05-28T15:04:33.00Z,,,,,V,0,0,99.99,,boat1,1,4.13,98.1,0,,-0.12,1.01,-0.05,5.75,0.57,10.88,82.67,112.62,,,,,,,,
2025-05-28T15:04:33.10Z,,,,,V,0,0,99.99,,boat1,1,4.13,98.1,0,,-0.16,0.95,-0.04,0.64,0.89,8.06,80.15,104.04,,,,,,,,
2025-05-28T15:04:33.20Z,,,,,V,0,0,99.99,,boat1,1,4.13,98.1,0,,-0.14,1.01,0.0,4.72,-0.9,9.14,82.11,90.0,,,,,,,,
2025-05-28T15:04:33.30Z,,,,,V,0,0,99.99,,boat1,1,4.13,98.1,0,,-0.18,1.06,-0.01,2.61,-0.66,2.77,80.35,93.18,,,,,,,,
2025-05-28T15:04:33.40Z,,,,,V,0,0,99.99,,boat1,1,4.13,98.1,0,,-0.15,1.0,0.05,3.98,1.57,4.38,81.02,71.57,,,,,,,,
2025-05-28T15:04:33.50Z,,,,,V,0,0,99.99,,boat1,1,4.13,98.1,0,,-0.16,0.99,-0.01,3.34,3.82,-3.7,80.8,93.58,,,,,,,,
2025-05-28T15:04:33.60Z,,,,,V,0,0,99.99,,boat1,1,4.13,98.1,0,,-0.16,1.02,-0.04,7.59,3.68,-6.59,80.82,104.04,,,,,,,,
2025-05-28T15:04:33.70Z,,,,,V,0,0,99.99,,boat1,1,4.13,98.1,0,,-0.08,0.94,-0.14,6.4,2.77,-7.73,80.27,150.26,,,,,,,,
2025-05-28T15:04:33.80Z,,,,,V,0,0,99.99,,boat1,1,4.13,98.1,0,,-0.16,1.03,-0.04,6.24,-0.59,-8.74,80.9,104.04,,,,,,,,
2025-05-28T15:04:33.90Z,,,,,V,0,0,99.99,,boat1,1,4.13,98.1,0,,-0.05,0.98,-0.02,6.21,-2.48,-9.76,86.85,111.8,,,,,,,,
2025-05-28T15:04:34.00Z,,,,,V,0,0,99.99,,boat1,1,4.13,98.1,0,,-0.27,1.02,0.02,2.69,1.22,-6.82,75.13,85.76,,,,,,,,
2025-05-28T15:04:34.10Z,,,,,V,0,0,99.99,,boat1,1,4.13,98.1,0,,-0.16,0.93,-0.06,11.85,2.59,-5.79,79.59,110.56,,,,,,,,
2025-05-28T15:04:34.20Z,,,,,V,0,0,99.99,,boat1,1,4.13,98.1,0,,-0.08,0.95,-0.1,8.35,6.34,-5.66,82.32,141.34,,,,,,,,
2025-05-28T15:04:34.30Z,,,,,V,0,0,99.99,,boat1,1,4.13,98.1,0,,-0.17,0.98,-0.13,9.69,9.19,-3.09,77.68,127.41,,,,,,,,
2025-05-28T15:04:34.40Z,,,,,V,0,0,99.99,,boat1,1,4.13,98.1,0,,-0.21,1.15,0.03,13.69,7.14,3.53,79.55,81.87,,,,,,,,
2025-05-28T15:04:34.50Z,,,,,V,0,0,99.99,,boat1,1,4.13,98.1,0,,-0.12,1.1,0.01,6.32,4.66,-0.22,83.75,85.24,,,,,,,,
2025-05-28T15:04:34.60Z,,,,,V,0,0,99.99,,boat1,1,4.13,98.1,0,,-0.07,1.08,-0.05,-0.56,-1.57,1.17,85.45,125.54,,,,,,,,
2025-05-28T15:04:34.70Z,,,,,V,0,0,99.99,,boat1,1,4.13,98.1,0,,-0.26,1.05,-0.06,7.35,2.99,6.56,75.74,102.99,,,,,,,,
2025-05-28T15:04:34.80Z,,,,,V,0,0,99.99,,boat1,1,4.13,98.1,0,,-0.11,0.94,-0.08,8.67,0.15,3.36,81.77,126.03,,,,,,,,
2025-05-28T15:04:34.90Z,,,,,V,0,0,99.99,,boat1,1,4.13,98.1,0,,-0.19,1.06,0.03,7.78,-12.44,11.41,79.71,81.03,,,,,,,,
2025-05-28T15:04:35.00Z,,,,,V,0,0,99.99,,boat1,1,4.13,98.1,0,,-0.17,1.07,-0.14,7.67,-7.8,10.21,78.37,129.47,,,,,,,,
2025-05-28T15:04:35.10Z,,,,,V,0,0,99.99,,boat1,1,4.13,98.1,0,,-0.09,0.93,-0.08,7.89,-9.46,3.62,82.62,131.63,,,,,,,,
2025-05-28T15:04:35.20Z,,,,,V,0,0,99.99,,boat1,1,4.13,98.1,0,,-0.03,0.91,0.06,6.82,-6.59,2.89,85.78,26.57,,,,,,,,
2025-05-28T15:04:35.30Z,,,,,V,0,0,99.99,,boat1,1,4.13,98.1,0,,-0.08,0.92,-0.04,10.68,-4.87,1.72,84.45,116.57,,,,,,,,
2025-05-28T15:04:35.40Z,,,,,V,0,0,99.99,,boat1,1,4.13,98.1,0,,-0.04,0.83,-0.11,5.8,7.11,-6.02,81.97,160.02,,,,,,,,
2025-05-28T15:04:35.50Z,,,,,V,0,0,99.99,,boat1,1,4.13,98.1,0,,-0.18,0.98,-0.15,2.1,17.97,-4.84,76.55,129.81,,,,,,,,
2025-05-28T15:04:35.60Z,,,,,V,0,0,99.99,,boat1,1,4.13,98.1,0,,-0.07,1.06,-0.12,6.36,14.68,-5.59,82.53,149.74,,,,,,,,
2025-05-28T15:04:35.80Z,,,,,V,0,0,99.99,,boat1,1,4.13,98.1,0,,-0.09,1.08,0.02,7.47,13.8,-1.53,85.12,77.47,,,,,,,,
2025-05-28T15:04:35.90Z,,,,,V,0,0,99.99,,boat1,1,4.13,98.1,0,,-0.17,1.02,-0.02,6.96,10.85,-0.46,80.47,96.71,,,,,,,,
2025-05-28T15:04:36.00Z,,,,,V,0,0,99.99,,boat1,1,4.13,98.1,0,,-0.06,1.1,-0.08,9.55,-0.77,0.66,84.81,143.13,,,,,,,,
2025-05-28T15:04:36.10Z,,,,,V,0,0,99.99,,boat1,1,4.13,98.1,0,,-0.19,1.13,-0.01,7.74,-7.6,0.14,80.44,93.01,,,,,,,,
2025-05-28T15:04:36.20Z,,,,,V,0,0,99.99,,boat1,1,4.13,98.1,0,,-0.13,1.03,-0.05,12.12,-16.27,2.94,82.3,111.04,,,,,,,,
2025-05-28T15:04:36.30Z,,,,,V,0,0,99.99,,boat1,1,4.13,98.1,0,,-0.05,1.01,-0.02,12.01,-22.11,0.66,86.95,111.8,,,,,,,,
2025-05-28T15:04:36.40Z,,,,,V,0,0,99.99,,boat1,1,4.13,98.1,0,,-0.12,0.86,0.02,4.66,-25.45,0.52,81.95,80.54,,,,,,,,
2025-05-28T15:04:36.50Z,,,,,V,0,0,99.99,,boat1,1,4.13,98.1,0,,-0.09,0.94,0.05,6.66,-23.79,-1.24,83.75,60.95,,,,,,,,
2025-05-28T15:04:36.60Z,,,,,V,0,0,99.99,,boat1,1,4.13,98.1,0,,-0.03,0.74,-0.05,2.11,-3.85,0.41,85.49,149.04,,,,,,,,
2025-05-28T15:04:36.70Z,,,,,V,0,0,99.99,,boat1,1,4.13,98.1,0,,-0.12,0.88,0.0,7.16,-3.1,1.82,82.23,90.0,,,,,,,,
2025-05-28T15:04:36.80Z,,,,,V,0,0,99.99,,boat1,1,4.13,98.1,0,,-0.19,0.77,-0.21,-1.71,11.78,12.03,69.81,137.86,,,,,,,,
2025-05-28T15:04:36.90Z,,,,,V,0,0,99.99,,boat1,1,4.13,98.1,0,,-0.05,1.01,-0.03,0.1,20.68,8.52,86.7,120.96,,,,,,,,
2025-05-28T15:04:37.00Z,,,,,V,0,0,99.99,,boat1,1,4.13,98.1,0,,0.08,0.93,-0.02,-1.18,24.69,6.29,84.93,-104.04,,,,,,,,
2025-05-28T15:04:37.10Z,,,,,V,0,0,99.99,,boat1,1,4.13,98.1,0,,-0.11,1.12,0.01,-1.22,21.91,7.6,84.37,84.81,,,,,,,,
2025-05-28T15:04:37.20Z,,,,,V,0,0,99.99,,boat1,1,4.13,98.1,0,,-0.07,1.15,0.0,-2.14,19.84,6.51,86.52,90.0,,,,,,,,
2025-05-28T15:04:37.30Z,,,,,V,0,0,99.99,,boat1,1,4.13,98.1,0,,-0.07,1.24,0.08,-2.32,15.03,3.18,85.1,41.19,,,,,,,,
2025-05-28T15:04:37.40Z,,,,,V,0,0,99.99,,boat1,1,4.13,98.1,0,,0.0,1.15,-0.01,-1.41,2.64,-1.81,89.5,-180.0,,,,,,,,
2025-05-28T15:04:37.50Z,,,,,V,0,0,99.99,,boat1,1,4.13,98.1,0,,-0.01,1.03,-0.03,-1.08,-6.03,-7.07,88.24,161.57,,,,,,,,
2025-05-28T15:04:37.60Z,,,,,V,0,0,99.99,,boat1,1,4.13,98.1,0,,-0.05,1.02,0.03,1.6,-9.61,-11.0,86.73,59.04,,,,,,,,
2025-05-28T15:04:37.70Z,,,,,V,0,0,99.99,,boat1,1,4.13,98.1,0,,-0.04,1.04,0.04,2.62,-14.4,-13.69,86.89,45.0,,,,,,,,
2025-05-28T15:04:37.80Z,,,,,V,0,0,99.99,,boat1,1,4.13,98.1,0,,-0.2,0.93,0.02,7.55,-14.46,-12.78,77.8,84.29,,,,,,,,
2025-05-28T15:04:37.90Z,,,,,V,0,0,99.99,,boat1,1,4.13,98.1,0,,-0.22,0.84,-0.02,10.12,-7.42,-9.49,75.27,95.19,,,,,,,,
2025-05-28T15:04:38.00Z,,,,,V,0,0,99.99,,boat1,1,4.13,98.1,0,,-0.01,0.83,-0.1,10.32,-4.92,-7.46,83.1,174.29,,,,,,,,
2025-05-28T15:04:38.10Z,,,,,V,0,0,99.99,,boat1,1,4.13,98.1,0,,-0.01,0.81,-0.12,7.07,4.61,-3.28,81.54,175.24,,,,,,,,
2025-05-28T15:04:38.20Z,,,,,V,0,0,99.99,,boat1,1,4.13,98.1,0,,-0.1,0.96,-0.06,2.84,8.95,-0.24,83.07,120.96,,,,,,,,
2025-05-28T15:04:38.30Z,,,,,V,0,0,99.99,,boat1,1,4.13,98.1,0,,-0.1,0.96,-0.08,1.92,11.05,1.07,82.4,128.66,,,,,,,,
2025-05-28T15:04:38.40Z,,,,,V,0,0,99.99,,boat1,1,4.13,98.1,0,,-0.1,1.0,-0.07,1.68,12.43,1.75,83.04,124.99,,,,,,,,
2025-05-28T15:04:38.50Z,,,,,V,0,0,99.99,,boat1,1,4.13,98.1,0,,-0.13,1.09,-0.1,2.99,11.22,3.87,81.44,127.57,,,,,,,,
2025-05-28T15:04:38.60Z,,,,,V,0,0,99.99,,boat1,1,4.13,98.1,0,,-0.11,1.08,-0.05,3.4,7.27,4.3,83.62,114.44,,,,,,,,
2025-05-28T15:04:38.70Z,,,,,V,0,0,99.99,,boat1,1,4.13,98.1,0,,-0.16,1.07,-0.05,2.64,5.42,4.24,81.1,107.35,,,,,,,,
2025-05-28T15:04:38.80Z,,,,,V,0,0,99.99,,boat1,1,4.13,98.1,0,,-0.04,1.04,-0.07,2.76,0.36,1.46,85.57,150.26,,,,,,,,
2025-05-28T15:04:38.90Z,,,,,V,0,0,99.99,,boat1,1,4.13,98.1,0,,0.0,1.04,-0.07,1.91,-3.86,-2.35,86.15,180.0,,,,,,,,
2025-05-28T15:04:39.00Z,,,,,V,0,0,99.99,,boat1,1,4.13,98.1,0,,-0.07,0.94,-0.08,1.37,-6.06,-3.93,83.55,138.81,,,,,,,,
2025-05-28T15:04:39.10Z,,,,,V,0,0,99.99,,boat1,1,4.13,98.1,0,,-0.1,1.02,0.01,3.94,-7.06,-6.98,84.37,84.29,,,,,,,,
2025-05-28T15:04:39.30Z,,,,,V,0,0,99.99,,boat1,1,4.13,98.0,0,,-0.15,1.0,0.0,4.33,-8.44,-6.6,81.47,90.0,,,,,,,,
2025-05-28T15:04:39.40Z,,,,,V,0,0,99.99,,boat1,1,4.13,98.0,0,,-0.16,1.01,-0.02,5.24,-9.05,-2.07,80.93,97.13,,,,,,,,
2025-05-28T15:04:39.50Z,,,,,V,0,0,99.99,,boat1,1,4.13,98.0,0,,-0.16,0.85,-0.04,4.7,-3.38,-0.77,79.02,104.04,,,,,,,,
2025-05-28T15:04:39.70Z,,,,,V,0,0,99.99,,boat1,1,4.13,98.0,0,,0.02,0.81,-0.06,4.57,4.96,1.43,85.54,-161.57,,,,,,,,
2025-05-28T15:04:39.80Z,,,,,V,0,0,99.99,,boat1,1,4.13,98.0,0,,-0.08,0.94,-0.05,0.8,10.58,-0.45,84.27,122.01,,,,,,,,
2025-05-28T15:04:39.90Z,,,,,V,0,0,99.99,,boat1,1,4.13,98.0,0,,-0.26,1.04,-0.02,-2.56,17.26,2.1,75.92,94.4,,,,,,,,
2025-05-28T15:04:40.00Z,,,,,V,0,0,99.99,,boat1,1,4.13,98.0,0,,-0.03,1.01,-0.13,1.33,13.8,2.0,82.48,167.01,,,,,,,,
2025-05-28T15:04:40.10Z,,,,,V,0,0,99.99,,boat1,1,4.13,98.0,0,,-0.11,1.07,0.03,-0.92,10.37,2.58,83.92,74.74,,,,,,,,
2025-05-28T15:04:40.20Z,,,,,V,0,0,99.99,,boat1,1,4.13,98.0,0,,-0.12,1.06,-0.01,1.29,8.16,2.08,83.52,94.76,,,,,,,,
2025-05-28T15:04:40.30Z,,,,,V,0,0,99.99,,boat1,1,4.13,98.0,0,,-0.19,1.08,0.11,0.46,8.51,2.29,78.51,59.93,,,,,,,,
2025-05-28T15:04:40.40Z,,,,,V,0,0,99.99,,boat1,1,4.13,98.0,0,,0.02,1.02,-0.03,2.9,2.06,-2.38,87.98,-146.31,,,,,,,,
2025-05-28T15:04:40.50Z,,,,,V,0,0,99.99,,boat1,1,4.13,98.0,0,,-0.11,1.07,-0.01,-3.35,-0.84,-6.83,84.11,95.19,,,,,,,,
2025-05-28T15:04:40.60Z,,,,,V,0,0,99.99,,boat1,1,4.13,98.0,0,,-0.07,1.02,-0.07,-2.35,-7.46,-7.26,84.46,135.0,,,,,,,,
2025-05-28T15:04:40.70Z,,,,,V,0,0,99.99,,boat1,1,4.13,98.0,0,,-0.08,0.99,-0.22,-3.55,-0.81,-7.38,76.7,160.02,,,,,,,,
2025-05-28T15:04:40.80Z,,,,,V,0,0,99.99,,boat1,1,4.13,98.0,0,,-0.09,1.02,0.14,5.8,-8.43,-10.54,80.73,32.74,,,,,,,,
2025-05-28T15:04:40.90Z,,,,,V,0,0,99.99,,boat1,1,4.13,98.0,0,,-0.19,0.96,0.01,1.45,-6.06,-10.19,78.79,86.99,,,,,,,,
2025-05-28T15:04:41.00Z,,,,,V,0,0,99.99,,boat1,1,4.13,98.0,0,,-0.13,0.94,-0.01,-0.05,-1.34,-7.2,82.1,94.4,,,,,,,,
2025-05-28T15:04:41.10Z,,,,,V,0,0,99.99,,boat1,1,4.13,98.0,0,,-0.19,0.93,-0.08,5.68,0.83,-2.7,77.5,112.83,,,,,,,,
2025-05-28T15:04:41.20Z,,,,,V,0,0,99.99,,boat1,1,4.13,98.0,0,,-0.14,0.91,-0.06,-3.0,3.6,0.81,80.5,113.2,,,,,,,,
2025-05-28T15:04:41.30Z,,,,,V,0,0,99.99,,boat1,1,4.13,98.0,0,,-0.23,0.93,0.04,-4.39,-0.45,7.1,75.91,80.13,,,,,,,,
2025-05-28T15:04:41.40Z,,,,,V,0,0,99.99,,boat1,1,4.13,98.0,0,,-0.03,0.97,-0.17,-8.99,6.44,10.86,79.91,169.99,,,,,,,,
2025-05-28T15:04:41.50Z,,,,,V,0,0,99.99,,boat1,1,4.13,98.0,0,,-0.1,0.95,-0.11,-6.54,1.85,12.87,81.11,137.73,,,,,,,,
2025-05-28T15:04:41.60Z,,,,,V,0,0,99.99,,boat1,1,4.13,98.0,0,,-0.06,1.0,0.0,-7.32,0.84,12.48,86.57,90.0,,,,,,,,
2025-05-28T15:04:41.70Z,,,,,V,0,0,99.99,,boat1,1,4.13,98.0,0,,-0.12,1.06,-0.04,-9.18,-0.31,8.2,83.2,108.43,,,,,,,,
2025-05-28T15:04:41.80Z,,,,,V,0,0,99.99,,boat1,1,4.13,98.0,0,,-0.17,1.01,-0.03,-4.94,1.85,5.44,80.3,100.01,,,,,,,,
2025-05-28T15:04:41.90Z,,,,,V,0,0,99.99,,boat1,1,4.13,98.0,0,,-0.09,0.99,-0.03,-3.25,-2.84,-2.76,84.53,108.43,,,,,,,,
2025-05-28T15:04:42.00Z,,,,,V,0,0,99.99,,boat1,1,4.13,98.0,0,,-0.07,1.02,-0.02,-4.82,-2.04,-3.04,85.92,105.95,,,,,,,,
2025-05-28T15:04:42.20Z,,,,,V,0,0,99.99,,boat1,1,4.13,98.0,0,,-0.09,0.99,-0.04,-3.31,1.41,-7.01,84.32,113.96,,,,,,,,
2025-05-28T15:04:42.30Z,,,,,V,0,0,99.99,,boat1,1,4.13,98.0,0,,-0.12,0.95,-0.03,-4.94,2.98,-6.83,82.58,104.04,,,,,,,,
2025-05-28T15:04:42.40Z,,,,,V,0,0,99.99,,boat1,1,4.13,98.0,0,,-0.21,0.97,0.01,-7.35,3.22,-6.05,77.77,87.27,,,,,,,,
2025-05-28T15:04:42.50Z,,,,,V,0,0,99.99,,boat1,1,4.13,98.0,0,,-0.14,0.98,-0.04,-4.63,3.9,-3.42,81.55,105.95,,,,,,,,
2025-05-28T15:04:42.60Z,,,,,V,0,0,99.99,,boat1,1,4.13,98.0,0,,-0.18,0.99,-0.02,-4.58,2.36,-2.7,79.63,96.34,,,,,,,,
2025-05-28T15:04:42.70Z,,,,,V,0,0,99.99,,boat1,1,4.13,98.0,0,,-0.09,0.96,-0.03,-3.43,1.85,-1.93,84.36,108.43,,,,,,,,
2025-05-28T15:04:42.80Z,,,,,V,0,0,99.99,,boat1,1,4.13,98.0,0,,-0.14,0.99,0.01,-2.21,0.02,-1.09,81.93,85.91,,,,,,,,
2025-05-28T15:04:42.90Z,,,,,V,0,0,99.99,,boat1,1,4.13,98.0,0,,-0.13,0.96,-0.1,0.59,-4.41,1.51,80.3,127.57,,,,,,,,
2025-05-28T15:04:43.00Z,,,,,V,0,0,99.99,,boat1,1,4.13,98.0,0,,-0.12,1.02,-0.05,-1.49,-1.39,0.95,82.74,112.62,,,,,,,,
2025-05-28T15:04:43.10Z,,,,,V,0,0,99.99,,boat1,1,4.13,98.0,0,,-0.14,0.97,-0.12,-1.76,-2.55,1.69,79.24,130.6,,,,,,,,
2025-05-28T15:04:43.20Z,,,,,V,0,0,99.99,,boat1,1,4.13,98.0,0,,-0.13,0.99,-0.08,-0.32,-1.27,3.05,81.23,121.61,,,,,,,,
2025-05-28T15:04:43.30Z,,,,,V,0,0,99.99,,boat1,1,4.13,98.0,0,,-0.13,1.01,-0.01,-0.42,-1.1,3.88,82.64,94.4,,,,,,,,
2025-05-28T15:04:43.40Z,,,,,V,0,0,99.99,,boat1,1,4.13,98.0,0,,-0.11,0.97,-0.05,-0.55,-0.02,5.29,82.9,114.44,,,,,,,,
2025-05-28T15:04:43.50Z,,,,,V,0,0,99.99,,boat1,1,4.13,98.0,0,,-0.1,1.02,0.0,-1.13,-1.93,4.89,84.4,90.0,,,,,,,,
2025-05-28T15:04:43.60Z,,,,,V,0,0,99.99,,boat1,1,4.13,98.0,0,,-0.08,1.0,-0.01,-3.18,-0.32,4.29,85.39,97.13,,,,,,,,
2025-05-28T15:04:43.70Z,,,,,V,0,0,99.99,,boat1,1,4.13,98.0,0,,-0.1,1.0,-0.04,-2.79,1.99,2.83,83.85,111.8,,,,,,,,
2025-05-28T15:04:43.80Z,,,,,V,0,0,99.99,,boat1,1,4.13,98.0,0,,-0.09,1.02,-0.02,-3.8,1.15,1.54,84.84,102.53,,,,,,,,
2025-05-28T15:04:43.90Z,,,,,V,0,0,99.99,,boat1,1,4.13,98.0,0,,-0.13,1.02,-0.02,-1.81,-0.12,-2.0,82.65,98.75,,,,,,,,
2025-05-28T15:04:44.00Z,,,,,V,0,0,99.99,,boat1,1,4.13,98.0,0,,-0.09,1.01,0.01,-0.25,2.13,-5.88,84.88,83.66,,,,,,,,
2025-05-28T15:04:44.10Z,,,,,V,0,0,99.99,,boat1,1,4.13,98.0,0,,-0.13,1.0,0.01,0.57,1.94,-7.55,82.57,85.6,,,,,,,,
2025-05-28T15:04:44.20Z,,,,,V,0,0,99.99,,boat1,1,4.13,98.0,0,,-0.09,0.99,-0.02,1.28,2.87,-7.87,84.68,102.53,,,,,,,,
2025-05-28T15:04:44.30Z,,,,,V,0,0,99.99,,boat1,1,4.13,98.0,0,,-0.15,1.01,-0.03,-0.33,2.78,-7.32,81.39,101.31,,,,,,,,
2025-05-28T15:04:44.40Z,,,,,V,0,0,99.99,,boat1,1,4.13,98.0,0,,-0.13,0.99,0.01,1.37,3.17,-6.48,82.5,85.6,,,,,,,,
2025-05-28T15:04:44.50Z,,,,,V,0,0,99.99,,boat1,1,4.13,98.0,0,,-0.15,1.02,-0.04,0.2,0.53,-1.32,81.35,104.93,,,,,,,,
2025-05-28T15:04:44.60Z,,,,,V,0,0,99.99,,boat1,1,4.13,98.0,0,,-0.13,1.01,-0.04,-0.94,-1.49,0.92,82.33,107.1,,,,,,,,
2025-05-28T15:04:44.70Z,,,,,V,0,0,99.99,,boat1,1,4.13,98.0,0,,-0.12,1.0,-0.02,-1.35,-0.61,4.24,83.06,99.46,,,,,,,,
2025-05-28T15:04:44.80Z,,,,,V,0,0,99.99,,boat1,1,4.13,98.0,0,,-0.11,1.01,-0.03,-3.85,-0.02,5.63,83.56,105.26,,,,,,,,
2025-05-28T15:04:44.90Z,,,,,V,0,0,99.99,,boat1,1,4.13,98.0,0,,-0.1,1.0,-0.01,-3.85,-0.5,6.11,84.26,95.71,,,,,,,,
2025-05-28T15:04:45.00Z,,,,,V,0,0,99.99,,boat1,1,4.13,98.0,0,,-0.05,0.99,-0.01,-5.84,0.45,5.91,87.05,101.31,,,,,,,,
2025-05-28T15:04:45.10Z,,,,,V,0,0,99.99,,boat1,1,4.13,98.0,0,,-0.09,1.0,0.0,-5.63,0.7,4.86,84.86,90.0,,,,,,,,
2025-05-28T15:04:45.20Z,,,,,V,0,0,99.99,,boat1,1,4.13,98.0,0,,-0.08,1.01,-0.03,-7.67,1.59,4.24,85.16,110.56,,,,,,,,
2025-05-28T15:04:45.30Z,,,,,V,0,0,99.99,,boat1,1,4.13,98.0,0,,-0.09,0.99,-0.02,-7.05,0.9,1.75,84.68,102.53,,,,,,,,
2025-05-28T15:04:45.40Z,,,,,V,0,0,99.99,,boat1,1,4.13,98.0,0,,-0.07,0.98,-0.02,-7.38,0.93,1.09,85.75,105.95,,,,,,,,
2025-05-28T15:04:45.50Z,,,,,V,0,0,99.99,,boat1,1,4.13,98.0,0,,-0.11,1.0,0.01,-7.39,0.43,-1.5,83.7,84.81,,,,,,,,
2025-05-28T15:04:45.60Z,,,,,V,0,0,99.99,,boat1,1,4.13,98.0,0,,-0.11,0.97,0.01,-4.06,-1.54,-5.19,83.5,84.81,,,,,,,,
2025-05-28T15:04:45.70Z,,,,,V,0,0,99.99,,boat1,1,4.13,98.0,0,,-0.09,0.99,0.02,-3.07,-1.45,-6.15,84.68,77.47,,,,,,,,
2025-05-28T15:04:45.80Z,,,,,V,0,0,99.99,,boat1,1,4.13,98.0,0,,-0.13,0.99,-0.05,-5.36,2.8,-7.17,81.99,111.04,,,,,,,,
2025-05-28T15:04:45.90Z,,,,,V,0,0,99.99,,boat1,1,4.13,98.0,0,,-0.19,0.95,-0.05,-5.01,1.92,-6.53,78.32,104.74,,,,,,,,
2025-05-28T15:04:46.00Z,,,,,V,0,0,99.99,,boat1,1,4.13,98.0,0,,-0.19,1.03,0.03,-0.35,-0.8,-7.01,79.42,81.03,,,,,,,,
2025-05-28T15:04:46.20Z,,,,,V,0,0,99.99,,boat1,1,4.13,98.0,0,,-0.16,1.02,0.0,1.56,-1.93,-5.27,81.09,90.0,,,,,,,,
2025-05-28T15:04:46.30Z,,,,,V,0,0,99.99,,boat1,1,4.13,98.0,0,,-0.22,1.11,0.09,6.69,-5.37,-1.27,77.91,67.75,,,,,,,,
2025-05-28T15:04:46.40Z,,,,,V,0,0,99.99,,boat1,1,4.13,98.0,0,,-0.17,1.01,-0.06,4.2,-1.24,1.7,79.88,109.44,,,,,,,,
2025-05-28T15:04:46.50Z,,,,,V,0,0,99.99,,boat1,1,4.13,98.0,0,,-0.14,0.98,-0.02,3.32,-1.62,5.84,81.79,98.13,,,,,,,,
2025-05-28T15:04:46.60Z,,,,,V,0,0,99.99,,boat1,1,4.13,98.0,0,,-0.14,0.98,-0.05,1.61,1.55,7.53,81.37,109.65,,,,,,,,
2025-05-28T15:04:46.70Z,,,,,V,0,0,99.99,,boat1,1,4.13,98.0,0,,-0.13,0.97,-0.05,0.64,3.22,8.32,81.83,111.04,,,,,,,,
2025-05-28T15:04:46.90Z,,,,,V,0,0,99.99,,boat1,1,4.13,98.0,0,,-0.08,0.97,-0.03,-1.65,5.96,7.11,84.97,110.56,,,,,,,,
2025-05-28T15:04:47.00Z,,,,,V,0,0,99.99,,boat1,1,4.13,98.0,0,,-0.07,0.99,-0.03,-3.36,5.74,5.03,85.6,113.2,,,,,,,,
2025-05-28T15:04:47.10Z,,,,,V,0,0,99.99,,boat1,1,4.13,98.0,0,,-0.09,1.02,-0.05,-4.53,4.44,0.96,84.24,119.05,,,,,,,,
2025-05-28T15:04:47.20Z,,,,,V,0,0,99.99,,boat1,1,4.13,98.0,0,,-0.11,1.04,-0.03,-3.0,3.19,-1.48,83.74,105.26,,,,,,,,
2025-05-28T15:04:47.30Z,,,,,V,0,0,99.99,,boat1,1,4.13,98.0,0,,-0.08,1.02,0.0,-1.26,0.11,-3.67,85.52,90.0,,,,,,,,
2025-05-28T15:04:47.40Z,,,,,V,0,0,99.99,,boat1,1,4.13,98.0,0,,-0.11,1.06,-0.02,-1.0,0.05,-6.76,83.98,100.3,,,,,,,,
2025-05-28T15:04:47.50Z,,,,,V,0,0,99.99,,boat1,1,4.13,98.0,0,,-0.05,1.03,-0.01,0.01,-2.56,-10.37,87.17,101.31,,,,,,,,
2025-05-28T15:04:47.60Z,,,,,V,0,0,99.99,,boat1,1,4.13,98.0,0,,-0.16,1.01,-0.09,-2.13,-1.43,-9.42,79.7,119.36,,,,,,,,
2025-05-28T15:04:47.70Z,,,,,V,0,0,99.99,,boat1,1,4.13,98.0,0,,-0.21,0.99,-0.09,-0.1,2.17,-7.81,77.0,113.2,,,,,,,,
2025-05-28T15:04:47.80Z,,,,,V,0,0,99.99,,boat1,1,4.13,98.0,0,,-0.14,1.0,-0.06,-1.91,-0.4,-5.23,81.34,113.2,,,,,,,,
2025-05-28T15:04:47.90Z,,,,,V,0,0,99.99,,boat1,1,4.13,98.0,0,,-0.15,0.98,-0.04,-0.11,-0.11,-3.4,81.0,104.93,,,,,,,,
2025-05-28T15:04:48.00Z,,,,,V,0,0,99.99,,boat1,1,4.13,98.0,0,,-0.13,0.96,-0.08,-2.92,1.25,-0.88,80.97,121.61,,,,,,,,
2025-05-28T15:04:48.10Z,,,,,V,0,0,99.99,,boat1,1,4.13,98.0,0,,-0.13,0.98,-0.01,-3.96,2.77,3.85,82.42,94.4,,,,,,,,
2025-05-28T15:04:48.20Z,,,,,V,0,0,99.99,,boat1,1,4.13,98.0,0,,-0.14,0.97,-0.01,-3.96,4.03,6.41,81.77,94.09,,,,,,,,
2025-05-28T15:04:48.30Z,,,,,V,0,0,99.99,,boat1,1,4.13,98.0,0,,-0.11,0.98,-0.01,-4.93,1.44,6.7,83.57,95.19,,,,,,,,
2025-05-28T15:04:48.40Z,,,,,V,0,0,99.99,,boat1,1,4.13,98.0,0,,-0.1,0.95,-0.04,-4.51,0.08,8.1,83.53,111.8,,,,,,,,
2025-05-28T15:04:48.50Z,,,,,V,0,0,99.99,,boat1,1,4.13,98.0,0,,-0.12,0.96,-0.03,-3.85,-0.49,6.75,82.66,104.04,,,,,,,,
2025-05-28T15:04:48.60Z,,,,,V,0,0,99.99,,boat1,1,4.13,98.0,0,,-0.09,0.96,-0.04,-4.44,-0.59,5.92,84.14,113.96,,,,,,,,
2025-05-28T15:04:48.70Z,,,,,V,0,0,99.99,,boat1,1,4.13,98.0,0,,-0.12,1.0,-0.03,-4.98,-1.72,2.4,82.95,104.04,,,,,,,,
2025-05-28T15:04:48.80Z,,,,,V,0,0,99.99,,boat1,1,4.13,98.0,0,,-0.09,1.01,-0.01,-3.59,-3.03,0.39,84.88,96.34,,,,,,,,
2025-05-28T15:04:48.90Z,,,,,V,0,0,99.99,,boat1,1,4.13,98.0,0,,-0.11,1.03,0.0,-3.18,-2.49,-2.64,83.9,90.0,,,,,,,,
2025-05-28T15:04:49.00Z,,,,,V,0,0,99.99,,boat1,1,4.13,98.0,0,,-0.11,1.0,0.0,-2.76,-2.12,-7.03,83.72,90.0,,,,,,,,
2025-05-28T15:04:49.10Z,,,,,V,0,0,99.99,,boat1,1,4.13,98.0,0,,-0.15,1.0,-0.05,-0.81,-0.16,-9.68,81.02,108.43,,,,,,,,
2025-05-28T15:04:49.20Z,,,,,V,0,0,99.99,,boat1,1,4.13,98.0,0,,-0.14,1.01,-0.04,-1.19,1.81,-9.48,81.8,105.95,,,,,,,,
2025-05-28T15:04:49.30Z,,,,,V,0,0,99.99,,boat1,1,4.13,98.0,0,,-0.21,1.05,0.01,-1.07,0.82,-9.59,78.68,87.27,,,,,,,,
2025-05-28T15:04:49.40Z,,,,,V,0,0,99.99,,boat1,1,4.13,98.0,0,,-0.18,1.05,0.01,-0.52,2.8,-7.96,80.26,86.82,,,,,,,,
2025-05-28T15:04:49.50Z,,,,,V,0,0,99.99,,boat1,1,4.13,98.0,0,,-0.22,1.01,-0.03,-0.29,4.89,-5.14,77.6,97.77,,,,,,,,
2025-05-28T15:04:49.60Z,,,,,V,0,0,99.99,,boat1,1,4.13,98.0,0,,-0.2,1.0,-0.04,1.03,4.68,-3.1,78.47,101.31,,,,,,,,
2025-05-28T15:04:49.70Z,,,,,V,0,0,99.99,,boat1,1,4.13,98.0,0,,-0.18,0.99,-0.07,2.99,2.79,-1.08,78.96,111.25,,,,,,,,
2025-05-28T15:04:49.80Z,,,,,V,0,0,99.99,,boat1,1,4.13,98.0,0,,-0.21,1.05,0.01,2.26,-0.85,0.42,78.68,87.27,,,,,,,,
2025-05-28T15:04:49.90Z,,,,,V,0,0,99.99,,boat1,1,4.13,98.0,0,,-0.17,1.05,-0.01,2.09,-2.44,4.39,80.79,93.37,,,,,,,,
2025-05-28T15:04:50.00Z,,,,,V,0,0,99.99,,boat1,1,4.13,98.0,0,,-0.11,1.01,-0.03,3.97,-3.87,4.7,83.56,105.26,,,,,,,,
2025-05-28T15:04:50.10Z,,,,,V,0,0,99.99,,boat1,1,4.13,98.0,0,,-0.09,1.01,0.0,1.51,-6.88,5.16,84.91,90.0,,,,,,,,
2025-05-28T15:04:50.20Z,,,,,V,0,0,99.99,,boat1,1,4.13,98.0,0,,-0.14,0.96,-0.08,-0.67,-4.98,3.08,80.47,119.74,,,,,,,,
2025-05-28T15:04:50.30Z,,,,,V,0,0,99.99,,boat1,1,4.13,98.0,0,,-0.03,0.92,-0.07,-1.4,-4.27,1.93,85.27,156.8,,,,,,,,
2025-05-28T15:04:50.40Z,,,,,V,0,0,99.99,,boat1,1,4.13,98.0,0,,-0.1,1.01,-0.04,-4.97,-5.52,3.88,83.91,111.8,,,,,,,,
2025-05-28T15:04:50.50Z,,,,,V,0,0,99.99,,boat1,1,4.13,98.0,0,,-0.1,0.94,-0.04,-6.5,-2.49,4.47,83.46,111.8,,,,,,,,
2025-05-28T15:04:50.60Z,,,,,V,0,0,99.99,,boat1,1,4.13,98.0,0,,-0.16,0.89,-0.05,-7.52,2.09,2.78,79.33,107.35,,,,,,,,
2025-05-28T15:04:50.70Z,,,,,V,0,0,99.99,,boat1,1,4.13,98.0,0,,-0.13,0.94,-0.1,-4.44,8.84,3.31,80.1,127.57,,,,,,,,
2025-05-28T15:04:50.80Z,,,,,V,0,0,99.99,,boat1,1,4.13,98.0,0,,-0.25,1.02,-0.06,-0.04,11.43,-0.32,75.85,103.5,,,,,,,,
2025-05-28T15:04:50.90Z,,,,,V,0,0,99.99,,boat1,1,4.13,98.0,0,,-0.17,1.06,-0.1,2.6,10.83,-0.36,79.46,120.47,,,,,,,,
2025-05-28T15:04:51.00Z,,,,,V,0,0,99.99,,boat1,1,4.13,98.0,0,,-0.2,1.11,-0.07,4.07,9.28,1.31,79.19,109.29,,,,,,,,
2025-05-28T15:04:51.10Z,,,,,V,0,0,99.99,,boat1,1,4.13,98.0,0,,-0.27,1.02,-0.04,15.15,1.62,0.97,75.02,98.43,,,,,,,,
2025-05-28T15:04:51.20Z,,,,,V,0,0,99.99,,boat1,1,4.13,98.0,0,,-0.2,1.09,-0.11,21.11,-1.37,4.34,78.17,118.81,,,,,,,,
2025-05-28T15:04:51.30Z,,,,,V,0,0,99.99,,boat1,1,4.13,98.0,0,,-0.17,1.07,-0.14,22.94,-2.0,4.24,78.37,129.47,,,,,,,,
2025-05-28T15:04:51.40Z,,,,,V,0,0,99.99,,boat1,1,4.13,98.0,0,,0.13,0.93,-0.15,17.53,-2.02,2.29,77.95,-139.09,,,,,,,,
2025-05-28T15:04:51.50Z,,,,,V,0,0,99.99,,boat1,1,4.13,98.0,0,,-0.11,1.0,-0.17,17.11,-2.69,5.75,78.55,147.09,,,,,,,,
2025-05-28T15:04:51.60Z,,,,,V,0,0,99.99,,boat1,1,4.13,98.0,0,,-0.1,0.93,-0.13,22.48,-1.35,3.87,80.0,142.43,,,,,,,,
2025-05-28T15:04:51.70Z,,,,,V,0,0,99.99,,boat1,1,4.13,98.0,0,,-0.07,1.02,-0.12,22.72,-2.4,-1.72,82.24,149.74,,,,,,,,
2025-05-28T15:04:51.80Z,,,,,V,0,0,99.99,,boat1,1,4.13,98.0,0,,0.02,0.94,-0.09,27.24,-1.48,-7.5,84.4,-167.47,,,,,,,,
2025-05-28T15:04:51.90Z,,,,,V,0,0,99.99,,boat1,1,4.13,98.0,0,,0.21,0.96,0.03,20.44,-0.55,-6.38,77.54,-81.87,,,,,,,,
2025-05-28T15:04:52.00Z,,,,,V,0,0,99.99,,boat1,1,4.13,98.0,0,,0.18,0.87,0.06,7.04,2.93,-2.62,77.7,-71.57,,,,,,,,
2025-05-28T15:04:52.10Z,,,,,V,0,0,99.99,,boat1,1,4.13,98.0,0,,-0.02,0.91,-0.1,-1.25,6.98,2.03,83.61,168.69,,,,,,,,
2025-05-28T15:04:52.20Z,,,,,V,0,0,99.99,,boat1,1,4.13,98.0,0,,-0.06,1.0,-0.1,3.38,7.34,3.32,83.35,149.04,,,,,,,,
2025-05-28T15:04:52.30Z,,,,,V,0,0,99.99,,boat1,1,4.13,98.0,0,,-0.07,1.0,-0.1,5.12,6.09,3.6,83.04,145.01,,,,,,,,
2025-05-28T15:04:52.40Z,,,,,V,0,0,99.99,,boat1,1,4.13,98.0,0,,-0.09,1.02,-0.02,9.16,3.05,3.5,84.84,102.53,,,,,,,,
2025-05-28T15:04:52.50Z,,,,,V,0,0,99.99,,boat1,1,4.13,98.0,0,,-0.01,0.99,-0.02,6.58,2.67,3.63,88.71,153.43,,,,,,,,
2025-05-28T15:04:52.60Z,,,,,V,0,0,99.99,,boat1,1,4.13,98.0,0,,0.02,0.96,-0.04,1.46,4.48,3.52,87.33,-153.43,,,,,,,,
2025-05-28T15:04:52.70Z,,,,,V,0,0,99.99,,boat1,1,4.13,98.0,0,,0.01,0.97,-0.11,-0.15,5.73,0.58,83.5,-174.81,,,,,,,,
2025-05-28T15:04:52.80Z,,,,,V,0,0,99.99,,boat1,1,4.13,98.0,0,,0.08,0.91,-0.16,3.68,5.6,-4.87,78.88,-153.43,,,,,,,,
2025-05-28T15:04:52.90Z,,,,,V,0,0,99.99,,boat1,1,4.13,98.0,0,,-0.01,1.02,-0.05,1.08,2.67,-8.5,87.14,168.69,,,,,,,,
2025-05-28T15:04:53.00Z,,,,,V,0,0,99.99,,boat1,1,4.13,98.0,0,,-0.03,1.02,-0.03,-0.78,2.4,-8.93,87.62,135.0,,,,,,,,
2025-05-28T15:04:53.10Z,,,,,V,0,0,99.99,,boat1,1,4.13,98.0,0,,-0.09,1.01,-0.09,-2.35,-0.59,-10.32,82.82,135.0,,,,,,,,
2025-05-28T15:04:53.20Z,,,,,V,0,0,99.99,,boat1,1,4.13,98.0,0,,-0.04,0.99,-0.07,0.39,-1.52,-6.77,85.34,150.26,,,,,,,,
2025-05-28T15:04:53.30Z,,,,,V,0,0,99.99,,boat1,1,4.13,98.0,0,,-0.05,0.93,-0.13,-0.87,0.52,-7.02,81.48,158.96,,,,,,,,
2025-05-28T15:04:53.40Z,,,,,V,0,0,99.99,,boat1,1,4.13,98.0,0,,-0.04,1.0,-0.11,-0.21,0.92,-11.16,83.32,160.02,,,,,,,,
2025-05-28T15:04:53.50Z,,,,,V,0,0,99.99,,boat1,1,4.13,98.0,0,,-0.08,1.05,-0.05,-4.99,-1.16,-11.22,84.87,122.01,,,,,,,,
2025-05-28T15:04:53.60Z,,,,,V,0,0,99.99,,boat1,1,4.13,98.0,0,,-0.15,1.02,-0.09,-6.85,-2.1,-9.46,80.27,120.96,,,,,,,,
2025-05-28T15:04:53.70Z,,,,,V,0,0,99.99,,boat1,1,4.13,98.0,0,,-0.25,1.04,-0.07,-7.83,-1.31,-3.84,75.98,105.64,,,,,,,,
2025-05-28T15:04:53.80Z,,,,,V,0,0,99.99,,boat1,1,4.13,98.0,0,,-0.21,1.05,-0.04,-5.88,-1.57,0.06,78.49,100.78,,,,,,,,
2025-05-28T15:04:53.90Z,,,,,V,0,0,99.99,,boat1,1,4.13,98.0,0,,-0.29,0.99,-0.03,3.53,-2.51,4.71,73.59,95.91,,,,,,,,
2025-05-28T15:04:54.00Z,,,,,V,0,0,99.99,,boat1,1,4.13,98.0,0,,-0.23,0.92,0.01,12.26,1.72,6.44,75.95,87.51,,,,,,,,
2025-05-28T15:04:54.10Z,,,,,V,0,0,99.99,,boat1,1,4.13,98.0,0,,-0.18,0.91,-0.06,12.24,5.22,5.99,78.22,108.43,,,,,,,,
2025-05-28T15:04:54.20Z,,,,,V,0,0,99.99,,boat1,1,4.13,98.0,0,,-0.19,0.9,-0.01,14.04,9.7,4.91,78.06,93.01,,,,,,,,
2025-05-28T15:04:54.30Z,,,,,V,0,0,99.99,,boat1,1,4.13,98.0,0,,-0.19,0.91,-0.02,15.67,11.33,3.76,78.14,96.01,,,,,,,,
2025-05-28T15:04:54.40Z,,,,,V,0,0,99.99,,boat1,1,4.13,98.0,0,,-0.16,0.94,-0.03,13.58,10.93,3.48,80.18,100.62,,,,,,,,
2025-05-28T15:04:54.50Z,,,,,V,0,0,99.99,,boat1,1,4.13,98.0,0,,-0.14,1.06,0.02,13.97,9.8,2.35,82.4,81.87,,,,,,,,
2025-05-28T15:04:54.60Z,,,,,V,0,0,99.99,,boat1,1,4.13,98.0,0,,-0.16,1.08,-0.08,15.31,5.4,-2.37,80.6,116.57,,,,,,,,
2025-05-28T15:04:54.70Z,,,,,V,0,0,99.99,,boat1,1,4.13,98.0,0,,-0.09,1.16,-0.01,14.8,3.04,-3.88,85.54,96.34,,,,,,,,
2025-05-28T15:04:54.80Z,,,,,V,0,0,99.99,,boat1,1,4.13,98.0,0,,-0.07,0.96,-0.12,10.5,-2.5,-5.26,81.77,149.74,,,,,,,,
2025-05-28T15:04:54.90Z,,,,,V,0,0,99.99,,boat1,1,4.13,98.0,0,,-0.06,1.0,-0.08,8.76,-4.24,-7.36,84.29,143.13,,,,,,,,
2025-05-28T15:04:55.00Z,,,,,V,0,0,99.99,,boat1,1,4.13,98.0,0,,-0.19,0.87,-0.17,2.13,-0.53,-7.16,73.67,131.82,,,,,,,,
2025-05-28T15:04:55.10Z,,,,,V,0,0,99.99,,boat1,1,4.13,98.0,0,,-0.29,0.96,-0.12,8.51,-1.6,-1.84,71.9,112.48,,,,,,,,
2025-05-28T15:04:55.20Z,,,,,V,0,0,99.99,,boat1,1,4.13,98.0,0,,-0.32,0.94,-0.01,22.2,3.51,0.71,71.19,91.79,,,,,,,,
2025-05-28T15:04:55.30Z,,,,,V,0,0,99.99,,boat1,1,4.13,98.0,0,,-0.27,0.97,0.01,25.66,4.36,-1.93,74.44,87.88,,,,,,,,
2025-05-28T15:04:55.40Z,,,,,V,0,0,99.99,,boat1,1,4.13,98.0,0,,-0.2,0.98,-0.02,31.51,5.92,-4.41,78.41,95.71,,,,,,,,
2025-05-28T15:04:55.50Z,,,,,V,0,0,99.99,,boat1,1,4.13,98.0,0,,-0.24,0.97,-0.05,31.33,6.72,-9.86,75.82,101.77,,,,,,,,
2025-05-28T15:04:55.60Z,,,,,V,0,0,99.99,,boat1,1,4.13,98.0,0,,-0.26,0.98,-0.02,31.18,6.73,-10.6,75.1,94.4,,,,,,,,
2025-05-28T15:04:55.70Z,,,,,V,0,0,99.99,,boat1,1,4.13,98.0,0,,-0.24,0.96,-0.06,27.6,8.93,-13.71,75.55,104.04,,,,,,,,
2025-05-28T15:04:55.80Z,,,,,V,0,0,99.99,,boat1,1,4.13,98.0,0,,-0.27,0.94,-0.07,24.02,10.18,-11.03,73.47,104.53,,,,,,,,
2025-05-28T15:04:55.90Z,,,,,V,0,0,99.99,,boat1,1,4.13,98.0,0,,-0.23,1.0,0.0,16.03,15.42,-9.93,77.05,90.0,,,,,,,,
2025-05-28T15:04:56.00Z,,,,,V,0,0,99.99,,boat1,1,4.13,98.0,0,,-0.27,0.89,-0.1,11.85,13.62,-5.75,72.07,110.32,,,,,,,,
2025-05-28T15:04:56.10Z,,,,,V,0,0,99.99,,boat1,1,4.13,98.0,0,,-0.31,0.95,-0.07,10.4,12.83,-4.87,71.5,102.72,,,,,,,,
2025-05-28T15:04:56.20Z,,,,,V,0,0,99.99,,boat1,1,4.13,98.0,0,,-0.33,1.03,-0.01,12.34,7.06,1.05,72.23,91.74,,,,,,,,
2025-05-28T15:04:56.30Z,,,,,V,0,0,99.99,,boat1,1,4.13,98.0,0,,-0.36,1.02,-0.06,13.89,4.3,2.22,70.31,99.46,,,,,,,,
2025-05-28T15:04:56.40Z,,,,,V,0,0,99.99,,boat1,1,4.13,98.0,0,,-0.28,1.03,0.02,14.34,-2.7,2.17,74.76,85.91,,,,,,,,
2025-05-28T15:04:56.50Z,,,,,V,0,0,99.99,,boat1,1,4.13,98.0,0,,-0.31,1.03,-0.01,11.94,-7.71,3.78,73.24,91.85,,,,,,,,
2025-05-28T15:04:56.60Z,,,,,V,0,0,99.99,,boat1,1,4.13,98.0,0,,-0.28,0.97,-0.06,10.89,-7.45,5.41,73.55,102.09,,,,,,,,
2025-05-28T15:04:56.70Z,,,,,V,0,0,99.99,,boat1,1,4.13,98.0,0,,-0.26,0.95,-0.03,9.65,-5.78,6.05,74.6,96.58,,,,,,,,
2025-05-28T15:04:56.80Z,,,,,V,0,0,99.99,,boat1,1,4.13,98.0,0,,-0.18,0.88,-0.09,2.69,-1.5,10.67,77.12,116.57,,,,,,,,
2025-05-28T15:04:56.90Z,,,,,V,0,0,99.99,,boat1,1,4.13,98.0,0,,-0.16,0.83,-0.14,-1.39,3.94,12.88,75.63,131.19,,,,,,,,
2025-05-28T15:04:57.00Z,,,,,V,0,0,99.99,,boat1,1,4.13,98.0,0,,-0.19,0.89,-0.12,0.41,5.81,7.88,75.83,122.28,,,,,,,,
2025-05-28T15:04:57.10Z,,,,,V,0,0,99.99,,boat1,1,4.13,98.0,0,,-0.16,1.1,-0.05,0.43,3.56,8.22,81.34,107.35,,,,,,,,
2025-05-28T15:04:57.20Z,,,,,V,0,0,99.99,,boat1,1,4.13,98.0,0,,-0.12,1.13,0.0,-0.75,-2.67,5.08,83.94,90.0,,,,,,,,
2025-05-28T15:04:57.30Z,,,,,V,0,0,99.99,,boat1,1,4.13,98.0,0,,-0.15,1.07,-0.02,0.22,-4.94,-1.51,81.95,97.59,,,,,,,,
2025-05-28T15:04:57.40Z,,,,,V,0,0,99.99,,boat1,1,4.13,98.0,0,,-0.09,1.03,-0.07,-0.66,-5.4,-4.43,83.68,127.87,,,,,,,,
2025-05-28T15:04:57.50Z,,,,,V,0,0,99.99,,boat1,1,4.13,98.0,0,,-0.11,1.02,-0.07,-4.28,-7.11,-6.06,82.72,122.47,,,,,,,,
2025-05-28T15:04:57.60Z,,,,,V,0,0,99.99,,boat1,1,4.13,98.0,0,,-0.12,0.96,-0.1,-6.98,-5.23,-4.3,80.76,129.81,,,,,,,,
2025-05-28T15:04:57.70Z,,,,,V,0,0,99.99,,boat1,1,4.13,98.0,0,,-0.19,0.94,-0.11,-6.66,-0.79,0.14,76.85,120.07,,,,,,,,
2025-05-28T15:04:57.80Z,,,,,V,0,0,99.99,,boat1,1,4.13,98.0,0,,-0.22,0.93,-0.08,-4.17,1.15,0.92,75.87,109.98,,,,,,,,
2025-05-28T15:04:57.90Z,,,,,V,0,0,99.99,,boat1,1,4.13,98.0,0,,-0.26,0.98,-0.08,2.6,4.29,0.88,74.49,107.1,,,,,,,,
2025-05-28T15:04:58.00Z,,,,,V,0,0,99.99,,boat1,1,4.13,98.0,0,,-0.17,0.98,-0.07,5.83,2.55,0.39,79.37,112.38,,,,,,,,
2025-05-28T15:04:58.10Z,,,,,V,0,0,99.99,,boat1,1,4.13,98.0,0,,-0.14,0.99,-0.08,4.27,1.9,-1.57,80.75,119.74,,,,,,,,
2025-05-28T15:04:58.20Z,,,,,V,0,0,99.99,,boat1,1,4.13,98.0,0,,-0.14,0.99,-0.06,4.1,1.82,-2.37,81.25,113.2,,,,,,,,
2025-05-28T15:04:58.30Z,,,,,V,0,0,99.99,,boat1,1,4.13,98.0,0,,-0.16,0.98,-0.07,2.8,2.08,-2.98,79.9,113.63,,,,,,,,
2025-05-28T15:04:58.40Z,,,,,V,0,0,99.99,,boat1,1,4.13,98.0,0,,-0.17,0.99,-0.07,-1.49,1.96,-2.77,79.48,112.38,,,,,,,,
2025-05-28T15:04:58.50Z,,,,,V,0,0,99.99,,boat1,1,4.13,98.0,0,,-0.18,1.05,-0.07,-2.17,0.84,0.81,79.58,111.25,,,,,,,,
2025-05-28T15:04:58.60Z,,,,,V,0,0,99.99,,boat1,1,4.13,98.0,0,,-0.16,1.06,-0.06,-2.79,-2.1,6.26,80.84,110.56,,,,,,,,
2025-05-28T15:04:58.70Z,,,,,V,0,0,99.99,,boat1,1,4.13,98.0,0,,-0.21,1.01,-0.08,-0.02,-2.8,7.08,77.46,110.85,,,,,,,,
2025-05-28T15:04:58.80Z,,,,,V,0,0,99.99,,boat1,1,4.13,98.0,0,,-0.19,0.99,-0.08,2.74,-3.14,7.74,78.24,112.83,,,,,,,,
2025-05-28T15:04:58.90Z,,,,,V,0,0,99.99,,boat1,1,4.13,98.0,0,,-0.17,0.99,-0.07,7.05,-3.18,6.41,79.48,112.38,,,,,,,,
2025-05-28T15:04:59.00Z,,,,,V,0,0,99.99,,boat1,1,4.13,98.0,0,,-0.15,0.94,-0.08,9.93,-1.26,2.45,79.75,118.07,,,,,,,,
2025-05-28T15:04:59.10Z,,,,,V,0,0,99.99,,boat1,1,4.13,98.0,0,,-0.11,0.92,-0.08,9.13,0.71,0.19,81.59,126.03,,,,,,,,
2025-05-28T15:04:59.20Z,,,,,V,0,0,99.99,,boat1,1,4.13,98.0,0,,-0.11,0.9,-0.08,8.2,2.37,-1.76,81.41,126.03,,,,,,,,
2025-05-28T15:04:59.30Z,,,,,V,0,0,99.99,,boat1,1,4.13,98.0,0,,-0.08,0.95,-0.08,6.5,5.57,-6.18,83.21,135.0,,,,,,,,
2025-05-28T15:04:59.40Z,,,,,V,0,0,99.99,,boat1,1,4.13,98.0,0,,-0.13,1.02,-0.06,4.05,4.2,-10.24,82.01,114.78,,,,,,,,
2025-05-28T15:04:59.50Z,,,,,V,0,0,99.99,,boat1,1,4.13,98.0,0,,-0.16,1.01,-0.07,0.64,2.18,-11.59,80.19,113.63,,,,,,,,
2025-05-28T15:04:59.60Z,,,,,V,0,0,99.99,,boat1,1,4.13,98.0,0,,-0.18,0.97,-0.08,-0.98,2.51,-9.11,78.52,113.96,,,,,,,,
2025-05-28T15:04:59.70Z,,,,,V,0,0,99.99,,boat1,1,4.13,98.0,0,,-0.19,0.98,-0.07,-4.17,3.78,-3.92,78.33,110.22,,,,,,,,
2025-05-28T15:04:59.80Z,,,,,V,0,0,99.99,,boat1,1,4.13,98.0,0,,-0.18,0.99,-0.06,-5.85,3.91,-0.84,79.15,108.43,,,,,,,,
2025-05-28T15:04:59.90Z,,,,,V,0,0,99.99,,boat1,1,4.13,98.0,0,,-0.19,1.0,-0.07,-6.8,3.72,1.74,78.55,110.22,,,,,,,,
2025-05-28T15:05:00.00Z,,,,,V,0,0,99.99,,boat1,1,4.13,98.0,0,,-0.21,0.99,-0.06,-6.15,2.54,4.79,77.56,105.95,,,,,,,,
2025-05-28T15:05:00.10Z,,,,,V,0,0,99.99,,boat1,1,4.13,98.0,0,,-0.24,1.02,-0.09,-2.43,0.45,6.02,75.89,110.56,,,,,,,,
2025-05-28T15:05:00.20Z,,,,,V,0,0,99.99,,boat1,1,4.13,98.0,0,,-0.22,0.99,-0.12,-1.51,0.11,5.52,75.8,118.61,,,,,,,,
2025-05-28T15:05:00.30Z,,,,,V,0,0,99.99,,boat1,1,4.13,98.0,0,,-0.11,1.03,-0.06,0.13,-3.03,3.79,83.06,118.61,,,,,,,,
2025-05-28T15:05:00.40Z,,,,,V,0,0,99.99,,boat1,1,4.13,98.0,0,,-0.15,1.0,-0.09,1.03,-3.57,1.78,80.08,120.96,,,,,,,,
2025-05-28T15:05:00.50Z,,,,,V,0,0,99.99,,boat1,1,4.13,98.0,0,,-0.14,0.99,-0.06,2.69,-2.57,-1.49,81.25,113.2,,,,,,,,
2025-05-28T15:05:00.60Z,,,,,V,0,0,99.99,,boat1,1,4.13,98.0,0,,-0.12,0.98,-0.06,2.25,-1.89,-1.85,82.2,116.57,,,,,,,,
2025-05-28T15:05:00.70Z,,,,,V,0,0,99.99,,boat1,1,4.13,98.0,0,,-0.13,0.99,-0.06,-0.31,-1.23,-1.81,81.77,114.78,,,,,,,,
2025-05-28T15:05:00.80Z,,,,,V,0,0,99.99,,boat1,1,4.13,98.0,0,,-0.13,0.98,-0.07,-2.18,-0.45,-2.02,81.43,118.3,,,,,,,,
2025-05-28T15:05:00.90Z,,,,,V,0,0,99.99,,boat1,1,4.13,98.0,0,,-0.12,0.96,-0.03,-4.77,0.69,-2.08,82.66,104.04,,,,,,,,
2025-05-28T15:05:01.00Z,,,,,V,0,0,99.99,,boat1,1,4.13,98.0,0,,-0.17,0.94,-0.07,-7.74,4.14,1.39,78.93,112.38,,,,,,,,
2025-05-28T15:05:01.10Z,,,,,V,0,0,99.99,,boat1,1,4.13,98.0,0,,-0.14,1.0,-0.07,-11.39,4.79,2.51,81.1,116.57,,,,,,,,
2025-05-28T15:05:01.20Z,,,,,V,0,0,99.99,,boat1,1,4.13,98.0,0,,-0.1,1.01,-0.02,-13.36,4.6,5.99,84.23,101.31,,,,,,,,
2025-05-28T15:05:01.30Z,,,,,V,0,0,99.99,,boat1,1,4.13,98.0,0,,-0.17,1.04,-0.07,-18.06,2.77,10.06,79.98,112.38,,,,,,,,
2025-05-28T15:05:01.40Z,,,,,V,0,0,99.99,,boat1,1,4.13,98.0,0,,-0.2,1.01,-0.17,-12.43,0.64,12.26,75.43,130.36,,,,,,,,
2025-05-28T15:05:01.50Z,,,,,V,0,0,99.99,,boat1,1,4.13,98.0,0,,-0.18,0.96,-0.12,1.35,1.69,6.82,77.3,123.69,,,,,,,,
2025-05-28T15:05:01.60Z,,,,,V,0,0,99.99,,boat1,1,4.13,98.0,0,,-0.18,0.94,-0.1,8.24,4.19,2.11,77.64,119.05,,,,,,,,
2025-05-28T15:05:01.70Z,,,,,V,0,0,99.99,,boat1,1,4.13,98.0,0,,-0.12,0.96,-0.06,13.33,5.08,-2.98,82.04,116.57,,,,,,,,
2025-05-28T15:05:01.80Z,,,,,V,0,0,99.99,,boat1,1,4.13,98.0,0,,-0.1,1.01,-0.02,13.82,4.21,-7.67,84.23,101.31,,,,,,,,
2025-05-28T15:05:01.90Z,,,,,V,0,0,99.99,,boat1,1,4.13,98.0,0,,-0.12,1.09,0.06,14.06,-0.59,-12.95,82.98,63.43,,,,,,,,
2025-05-28T15:05:02.00Z,,,,,V,0,0,99.99,,boat1,1,4.13,98.0,0,,-0.14,1.02,0.0,11.97,-1.91,-13.77,82.18,90.0,,,,,,,,
2025-05-28T15:05:02.10Z,,,,,V,0,0,99.99,,boat1,1,4.13,98.0,0,,-0.21,0.98,-0.07,13.83,-2.38,-15.18,77.27,108.43,,,,,,,,
